,city,cloudiness,country_code,humidity,lat,lng,temp,temp_max,temp_min,url,wind_speed
0,Grou,90,NL,86,53.09,5.84,35.16800000000006,37.39999999999998,33.799999999999955,https://api.openweathermap.org/data/2.5/weather?lat=53.09456&lon=5.83745&appid=de6eeb5e838ae1aee6c66e7e9de1f551,9.3
1,New York,1,US,86,42.97,-75.5,32.846000000000004,33.799999999999955,31.999999999999943,https://api.openweathermap.org/data/2.5/weather?lat=42.97479&lon=-75.50129&appid=de6eeb5e838ae1aee6c66e7e9de1f551,0.42
2,Stratford-upon-Avon,88,GB,100,52.22,-1.77,42.27800000000002,44.599999999999966,40.99999999999994,https://api.openweathermap.org/data/2.5/weather?lat=52.22081&lon=-1.76528&appid=de6eeb5e838ae1aee6c66e7e9de1f551,2.6
3,Belpre,90,US,93,39.27,-81.57,58.99999999999994,60.80000000000001,57.19999999999999,https://api.openweathermap.org/data/2.5/weather?lat=39.27396&lon=-81.5729&appid=de6eeb5e838ae1aee6c66e7e9de1f551,3.6
4,Abu al Matamir,0,EG,93,30.91,30.17,49.99999999999994,49.99999999999994,49.99999999999994,https://api.openweathermap.org/data/2.5/weather?lat=30.91018&lon=30.17438&appid=de6eeb5e838ae1aee6c66e7e9de1f551,1.37
5,Alfedena,32,IT,66,41.74,14.04,8.151800000000037,8.151800000000037,8.151800000000037,https://api.openweathermap.org/data/2.5/weather?lat=41.73545&lon=14.035&appid=de6eeb5e838ae1aee6c66e7e9de1f551,0.82
6,Savarsin,88,RO,99,46.02,22.23,31.146799999999985,31.146799999999985,31.146799999999985,https://api.openweathermap.org/data/2.5/weather?lat=46.01667&lon=22.23333&appid=de6eeb5e838ae1aee6c66e7e9de1f551,1.17
7,Dammarie,90,FR,100,48.34,1.49,43.35799999999995,44.599999999999966,40.99999999999994,https://api.openweathermap.org/data/2.5/weather?lat=48.34314&lon=1.49444&appid=de6eeb5e838ae1aee6c66e7e9de1f551,5.7
8,Ash Shajarah,68,JO,88,32.64,35.94,38.886799999999994,38.886799999999994,38.886799999999994,https://api.openweathermap.org/data/2.5/weather?lat=32.64391&lon=35.94175&appid=de6eeb5e838ae1aee6c66e7e9de1f551,1.52
9,Lucany nad Nisou,24,CZ,76,50.74,15.22,16.20679999999993,16.20679999999993,16.20679999999993,https://api.openweathermap.org/data/2.5/weather?lat=50.74136&lon=15.22046&appid=de6eeb5e838ae1aee6c66e7e9de1f551,1.67
10,Broadway,88,GB,100,52.04,-1.86,42.24199999999996,44.599999999999966,40.99999999999994,https://api.openweathermap.org/data/2.5/weather?lat=52.03825&lon=-1.86079&appid=de6eeb5e838ae1aee6c66e7e9de1f551,2.6
11,SantAgata li Battiati,20,IT,75,37.56,15.08,44.581999999999994,46.39999999999998,42.799999999999955,https://api.openweathermap.org/data/2.5/weather?lat=37.56494&lon=15.07863&appid=de6eeb5e838ae1aee6c66e7e9de1f551,2.6
12,Chilon,80,MX,97,17.23,-92.42,67.64180000000005,67.64180000000005,67.64180000000005,https://api.openweathermap.org/data/2.5/weather?lat=17.22715&lon=-92.41511&appid=de6eeb5e838ae1aee6c66e7e9de1f551,1.37
13,Carriage Club,90,US,31,39.53,-104.9,48.865999999999985,51.799999999999955,42.799999999999955,https://api.openweathermap.org/data/2.5/weather?lat=39.53249&lon=-104.90109&appid=de6eeb5e838ae1aee6c66e7e9de1f551,10.8
14,San Cipirello,40,IT,57,37.96,13.18,50.82800000000003,51.799999999999955,49.99999999999994,https://api.openweathermap.org/data/2.5/weather?lat=37.96067&lon=13.17732&appid=de6eeb5e838ae1aee6c66e7e9de1f551,7.7
15,Athy,75,IE,80,52.99,-6.98,39.19999999999993,39.19999999999993,39.19999999999993,https://api.openweathermap.org/data/2.5/weather?lat=52.99139&lon=-6.98028&appid=de6eeb5e838ae1aee6c66e7e9de1f551,9.3
16,Carcaixent,0,ES,76,39.12,-0.45,51.799999999999955,51.799999999999955,51.799999999999955,https://api.openweathermap.org/data/2.5/weather?lat=39.1218&lon=-0.44812&appid=de6eeb5e838ae1aee6c66e7e9de1f551,4.6
17,Hemingford Grey,90,GB,100,52.32,-0.1,44.599999999999966,44.599999999999966,44.599999999999966,https://api.openweathermap.org/data/2.5/weather?lat=52.31756&lon=-0.10029&appid=de6eeb5e838ae1aee6c66e7e9de1f551,5.1
18,Zongozotla,80,MX,93,20.0,-97.66,51.48680000000002,51.48680000000002,51.48680000000002,https://api.openweathermap.org/data/2.5/weather?lat=20.00037&lon=-97.65526&appid=de6eeb5e838ae1aee6c66e7e9de1f551,0.92
19,Kokopo,80,PG,100,-4.35,152.26,78.66680000000002,78.66680000000002,78.66680000000002,https://api.openweathermap.org/data/2.5/weather?lat=-4.35202&lon=152.26327&appid=de6eeb5e838ae1aee6c66e7e9de1f551,0.52
20,San Antonio,40,CL,87,-33.59,-71.61,57.19999999999999,57.19999999999999,57.19999999999999,https://api.openweathermap.org/data/2.5/weather?lat=-33.59473&lon=-71.60746&appid=de6eeb5e838ae1aee6c66e7e9de1f551,1.07
21,Burgersdorp,92,ZA,99,-31.0,26.33,56.12179999999995,56.12179999999995,56.12179999999995,https://api.openweathermap.org/data/2.5/weather?lat=-30.99766&lon=26.32862&appid=de6eeb5e838ae1aee6c66e7e9de1f551,1.57
22,Bova Marina,44,IT,100,37.94,15.92,51.30679999999995,51.30679999999995,51.30679999999995,https://api.openweathermap.org/data/2.5/weather?lat=37.93503&lon=15.91736&appid=de6eeb5e838ae1aee6c66e7e9de1f551,11.22
23,Lingcheng,36,CN,77,22.71,110.35,68.99180000000007,68.99180000000007,68.99180000000007,https://api.openweathermap.org/data/2.5/weather?lat=22.70722&lon=110.34917&appid=de6eeb5e838ae1aee6c66e7e9de1f551,1.77
24,Carbon Cliff,1,US,87,41.49,-90.39,38.678,42.799999999999955,35.599999999999966,https://api.openweathermap.org/data/2.5/weather?lat=41.49476&lon=-90.39068&appid=de6eeb5e838ae1aee6c66e7e9de1f551,3.1
25,Khandud,76,AF,75,36.95,72.32,0.3217999999999961,0.3217999999999961,0.3217999999999961,https://api.openweathermap.org/data/2.5/weather?lat=36.95127&lon=72.318&appid=de6eeb5e838ae1aee6c66e7e9de1f551,0.77
26,Leatherhead,90,GB,100,51.3,-0.33,46.903999999999996,48.19999999999993,44.599999999999966,https://api.openweathermap.org/data/2.5/weather?lat=51.29652&lon=-0.3338&appid=de6eeb5e838ae1aee6c66e7e9de1f551,3.6
27,Hidalgo del Parral,32,MX,44,26.76,-105.59,60.57679999999999,60.57679999999999,60.57679999999999,https://api.openweathermap.org/data/2.5/weather?lat=26.76209&lon=-105.58523&appid=de6eeb5e838ae1aee6c66e7e9de1f551,2.22
28,Gries im Sellrain,0,AT,92,47.2,11.16,9.194000000000017,12.199999999999932,6.7999999999999545,https://api.openweathermap.org/data/2.5/weather?lat=47.19554&lon=11.15619&appid=de6eeb5e838ae1aee6c66e7e9de1f551,2.1
29,Baleni Sarbi,90,RO,96,44.84,25.62,34.71800000000002,35.599999999999966,33.799999999999955,https://api.openweathermap.org/data/2.5/weather?lat=44.83927&lon=25.62082&appid=de6eeb5e838ae1aee6c66e7e9de1f551,2.1
30,Colmenar Viejo,20,ES,100,40.66,-3.77,39.75799999999998,42.799999999999955,37.39999999999998,https://api.openweathermap.org/data/2.5/weather?lat=40.65909&lon=-3.76762&appid=de6eeb5e838ae1aee6c66e7e9de1f551,1.0
31,Tagan’kovo,40,RU,92,55.67,37.04,11.26400000000001,12.199999999999932,8.599999999999966,https://api.openweathermap.org/data/2.5/weather?lat=55.67417&lon=37.04028&appid=de6eeb5e838ae1aee6c66e7e9de1f551,1.0
32,Copanatoyac,32,MX,50,17.34,-98.95,68.40679999999992,68.40679999999992,68.40679999999992,https://api.openweathermap.org/data/2.5/weather?lat=17.34194&lon=-98.94917&appid=de6eeb5e838ae1aee6c66e7e9de1f551,0.32
33,Benwell,20,GB,100,54.97,-1.67,37.41800000000006,39.19999999999993,35.599999999999966,https://api.openweathermap.org/data/2.5/weather?lat=54.97296&lon=-1.66926&appid=de6eeb5e838ae1aee6c66e7e9de1f551,2.1
34,Jaora,0,IN,53,23.64,75.13,58.95679999999999,58.95679999999999,58.95679999999999,https://api.openweathermap.org/data/2.5/weather?lat=23.63783&lon=75.12711&appid=de6eeb5e838ae1aee6c66e7e9de1f551,3.92
35,Tirunelveli,44,IN,74,8.73,77.68,74.84180000000009,74.84180000000009,74.84180000000009,https://api.openweathermap.org/data/2.5/weather?lat=8.72742&lon=77.6838&appid=de6eeb5e838ae1aee6c66e7e9de1f551,2.17
36,Sedziszow Malopolski,90,PL,86,50.07,21.7,26.599999999999966,26.599999999999966,26.599999999999966,https://api.openweathermap.org/data/2.5/weather?lat=50.07069&lon=21.70062&appid=de6eeb5e838ae1aee6c66e7e9de1f551,4.1
37,Vybor,56,RU,83,57.23,29.17,9.951799999999992,9.951799999999992,9.951799999999992,https://api.openweathermap.org/data/2.5/weather?lat=57.22716&lon=29.1663&appid=de6eeb5e838ae1aee6c66e7e9de1f551,1.37
38,Esme,75,TR,81,37.16,40.64,49.99999999999994,49.99999999999994,49.99999999999994,https://api.openweathermap.org/data/2.5/weather?lat=37.15569&lon=40.64142&appid=de6eeb5e838ae1aee6c66e7e9de1f551,4.1
39,Lichuan,92,CN,98,30.3,108.85,43.83679999999998,43.83679999999998,43.83679999999998,https://api.openweathermap.org/data/2.5/weather?lat=30.3&lon=108.85&appid=de6eeb5e838ae1aee6c66e7e9de1f551,0.77
40,Al Mahfid,0,YE,85,14.06,46.91,50.136799999999994,50.136799999999994,50.136799999999994,https://api.openweathermap.org/data/2.5/weather?lat=14.05847&lon=46.91329&appid=de6eeb5e838ae1aee6c66e7e9de1f551,1.37
41,Rangia,92,IN,88,26.45,91.61,66.19999999999999,66.19999999999999,66.19999999999999,https://api.openweathermap.org/data/2.5/weather?lat=26.44931&lon=91.61356&appid=de6eeb5e838ae1aee6c66e7e9de1f551,1.0
42,Reuilly,90,FR,100,47.08,2.04,45.19400000000002,46.39999999999998,42.799999999999955,https://api.openweathermap.org/data/2.5/weather?lat=47.08476&lon=2.04305&appid=de6eeb5e838ae1aee6c66e7e9de1f551,7.2
43,Kirkland,90,US,100,42.09,-88.85,36.823999999999955,37.39999999999998,35.599999999999966,https://api.openweathermap.org/data/2.5/weather?lat=42.09253&lon=-88.85121&appid=de6eeb5e838ae1aee6c66e7e9de1f551,4.6
44,Kenton,90,US,100,40.65,-83.61,44.27600000000007,46.39999999999998,40.99999999999994,https://api.openweathermap.org/data/2.5/weather?lat=40.647&lon=-83.60965&appid=de6eeb5e838ae1aee6c66e7e9de1f551,3.1
45,Cowarts,90,US,88,31.2,-85.3,64.39999999999992,66.19999999999999,62.599999999999966,https://api.openweathermap.org/data/2.5/weather?lat=31.20018&lon=-85.30465&appid=de6eeb5e838ae1aee6c66e7e9de1f551,1.5
46,Chacalapa Acapulco,20,MX,78,16.84,-99.64,82.39999999999992,82.39999999999992,82.39999999999992,https://api.openweathermap.org/data/2.5/weather?lat=16.8425&lon=-99.64056&appid=de6eeb5e838ae1aee6c66e7e9de1f551,3.1
47,Arcos de la Sierra,92,ES,94,40.35,-2.11,39.06680000000006,39.06680000000006,39.06680000000006,https://api.openweathermap.org/data/2.5/weather?lat=40.34664&lon=-2.1131&appid=de6eeb5e838ae1aee6c66e7e9de1f551,1.47
48,Ozu,75,JP,100,32.88,130.87,47.87600000000003,49.99999999999994,46.39999999999998,https://api.openweathermap.org/data/2.5/weather?lat=32.8804&lon=130.87161&appid=de6eeb5e838ae1aee6c66e7e9de1f551,1.5
49,Usti nad Orlici,0,CZ,86,49.97,16.39,26.599999999999966,26.599999999999966,26.599999999999966,https://api.openweathermap.org/data/2.5/weather?lat=49.97387&lon=16.39361&appid=de6eeb5e838ae1aee6c66e7e9de1f551,1.52
50,Boadilla del Camino,92,ES,100,42.26,-4.35,44.599999999999966,44.599999999999966,44.599999999999966,https://api.openweathermap.org/data/2.5/weather?lat=42.25934&lon=-4.34525&appid=de6eeb5e838ae1aee6c66e7e9de1f551,5.1
51,Lomazy,90,PL,92,51.9,23.18,22.999999999999943,22.999999999999943,22.999999999999943,https://api.openweathermap.org/data/2.5/weather?lat=51.90435&lon=23.17656&appid=de6eeb5e838ae1aee6c66e7e9de1f551,3.0
52,San Justo de la Vega,92,ES,87,42.46,-6.02,42.84679999999997,42.84679999999997,42.84679999999997,https://api.openweathermap.org/data/2.5/weather?lat=42.45696&lon=-6.01825&appid=de6eeb5e838ae1aee6c66e7e9de1f551,2.67
53,Boville Ernica,0,IT,100,41.64,13.47,27.186800000000005,27.186800000000005,27.186800000000005,https://api.openweathermap.org/data/2.5/weather?lat=41.64252&lon=13.4727&appid=de6eeb5e838ae1aee6c66e7e9de1f551,2.32
54,Kushva,80,RU,72,58.29,59.76,8.646799999999985,8.646799999999985,8.646799999999985,https://api.openweathermap.org/data/2.5/weather?lat=58.29056&lon=59.75917&appid=de6eeb5e838ae1aee6c66e7e9de1f551,1.07
55,Torrington,1,US,80,41.8,-73.12,37.22000000000003,42.799999999999955,33.799999999999955,https://api.openweathermap.org/data/2.5/weather?lat=41.80065&lon=-73.12122&appid=de6eeb5e838ae1aee6c66e7e9de1f551,3.6
56,Czestochowa,90,PL,86,50.8,19.12,28.399999999999977,28.399999999999977,28.399999999999977,https://api.openweathermap.org/data/2.5/weather?lat=50.79646&lon=19.12409&appid=de6eeb5e838ae1aee6c66e7e9de1f551,2.6
57,Heijplaat,75,NL,93,51.89,4.39,35.960000000000036,39.19999999999993,33.799999999999955,https://api.openweathermap.org/data/2.5/weather?lat=51.88833&lon=4.38889&appid=de6eeb5e838ae1aee6c66e7e9de1f551,8.2
58,Whiteriver,90,US,93,33.84,-109.96,37.39999999999998,37.39999999999998,37.39999999999998,https://api.openweathermap.org/data/2.5/weather?lat=33.83699&lon=-109.96427&appid=de6eeb5e838ae1aee6c66e7e9de1f551,3.6
59,Pieranica,0,IT,74,45.43,9.61,30.25400000000002,31.999999999999943,28.399999999999977,https://api.openweathermap.org/data/2.5/weather?lat=45.42617&lon=9.61026&appid=de6eeb5e838ae1aee6c66e7e9de1f551,2.1
60,Torre dePicenardi,0,IT,86,45.14,10.29,29.588000000000022,31.999999999999943,28.399999999999977,https://api.openweathermap.org/data/2.5/weather?lat=45.14317&lon=10.28803&appid=de6eeb5e838ae1aee6c66e7e9de1f551,1.72
61,Quinchia,75,CO,94,5.34,-75.73,67.99999999999994,67.99999999999994,67.99999999999994,https://api.openweathermap.org/data/2.5/weather?lat=5.33957&lon=-75.73018&appid=de6eeb5e838ae1aee6c66e7e9de1f551,1.0
62,Willington,90,GB,100,52.13,-0.37,44.97800000000001,46.39999999999998,44.599999999999966,https://api.openweathermap.org/data/2.5/weather?lat=52.13409&lon=-0.37235&appid=de6eeb5e838ae1aee6c66e7e9de1f551,4.6
63,Sayhut,76,YE,100,15.21,51.25,70.29680000000002,70.29680000000002,70.29680000000002,https://api.openweathermap.org/data/2.5/weather?lat=15.21056&lon=51.24556&appid=de6eeb5e838ae1aee6c66e7e9de1f551,4.37
64,Mission Hills,1,US,66,39.02,-94.62,47.24599999999998,53.599999999999966,42.799999999999955,https://api.openweathermap.org/data/2.5/weather?lat=39.01778&lon=-94.6169&appid=de6eeb5e838ae1aee6c66e7e9de1f551,3.1
65,Quarona,0,IT,79,45.76,8.27,31.44199999999995,48.19999999999993,24.799999999999955,https://api.openweathermap.org/data/2.5/weather?lat=45.76044&lon=8.26749&appid=de6eeb5e838ae1aee6c66e7e9de1f551,2.6
66,Arvayheer,0,MN,42,46.26,102.78,15.576799999999992,15.576799999999992,15.576799999999992,https://api.openweathermap.org/data/2.5/weather?lat=46.26389&lon=102.775&appid=de6eeb5e838ae1aee6c66e7e9de1f551,1.22
67,Guiguinto,40,PH,66,14.83,120.88,85.42399999999992,87.80000000000001,82.39999999999992,https://api.openweathermap.org/data/2.5/weather?lat=14.83333&lon=120.88333&appid=de6eeb5e838ae1aee6c66e7e9de1f551,1.0
68,Voula,20,GR,80,37.84,23.78,42.853999999999985,44.599999999999966,40.99999999999994,https://api.openweathermap.org/data/2.5/weather?lat=37.84221&lon=23.77651&appid=de6eeb5e838ae1aee6c66e7e9de1f551,2.1
69,Akersberga,88,SE,100,59.48,18.3,24.799999999999955,24.799999999999955,24.799999999999955,https://api.openweathermap.org/data/2.5/weather?lat=59.47944&lon=18.29967&appid=de6eeb5e838ae1aee6c66e7e9de1f551,1.5
70,Bad Mergentheim,90,DE,68,49.49,9.77,27.086000000000013,28.399999999999977,24.799999999999955,https://api.openweathermap.org/data/2.5/weather?lat=49.4925&lon=9.77361&appid=de6eeb5e838ae1aee6c66e7e9de1f551,7.7
71,Dzuiché,20,MX,65,20.17,-88.46,76.23679999999996,76.23679999999996,76.23679999999996,https://api.openweathermap.org/data/2.5/weather?lat=20.16542&lon=-88.46398&appid=de6eeb5e838ae1aee6c66e7e9de1f551,3.12
72,Pella,20,GR,80,40.76,22.53,33.799999999999955,33.799999999999955,33.799999999999955,https://api.openweathermap.org/data/2.5/weather?lat=40.76169&lon=22.52637&appid=de6eeb5e838ae1aee6c66e7e9de1f551,1.5
73,Itagi,64,BR,98,-14.16,-40.01,66.51680000000005,66.51680000000005,66.51680000000005,https://api.openweathermap.org/data/2.5/weather?lat=-14.16278&lon=-40.00611&appid=de6eeb5e838ae1aee6c66e7e9de1f551,1.02
74,Kramsk,36,PL,94,52.26,18.42,25.656799999999976,25.656799999999976,25.656799999999976,https://api.openweathermap.org/data/2.5/weather?lat=52.26469&lon=18.42407&appid=de6eeb5e838ae1aee6c66e7e9de1f551,2.52
75,Deanshanger,90,GB,100,52.05,-0.89,45.49999999999994,46.39999999999998,44.599999999999966,https://api.openweathermap.org/data/2.5/weather?lat=52.04996&lon=-0.88663&appid=de6eeb5e838ae1aee6c66e7e9de1f551,4.6
76,Kura,0,NG,37,11.7,8.54,67.99999999999994,67.99999999999994,67.99999999999994,https://api.openweathermap.org/data/2.5/weather?lat=11.69924&lon=8.54127&appid=de6eeb5e838ae1aee6c66e7e9de1f551,1.5
77,Gemeente Cuijk,40,NL,86,51.73,5.83,34.52000000000004,35.599999999999966,33.799999999999955,https://api.openweathermap.org/data/2.5/weather?lat=51.72583&lon=5.82778&appid=de6eeb5e838ae1aee6c66e7e9de1f551,5.1
78,Sindos,20,GR,80,40.67,22.81,33.799999999999955,33.799999999999955,33.799999999999955,https://api.openweathermap.org/data/2.5/weather?lat=40.67045&lon=22.80545&appid=de6eeb5e838ae1aee6c66e7e9de1f551,1.5
79,Colonia Lazaro Cardenas,90,MX,28,28.38,-105.62,71.59999999999997,71.59999999999997,71.59999999999997,https://api.openweathermap.org/data/2.5/weather?lat=28.38333&lon=-105.61667&appid=de6eeb5e838ae1aee6c66e7e9de1f551,3.6
80,Sosnovo-Ozerskoye,0,RU,65,52.52,111.54,-2.828200000000038,-2.828200000000038,-2.828200000000038,https://api.openweathermap.org/data/2.5/weather?lat=52.52466&lon=111.54124&appid=de6eeb5e838ae1aee6c66e7e9de1f551,2.57
81,Iona,90,US,64,43.53,-111.93,35.599999999999966,35.599999999999966,35.599999999999966,https://api.openweathermap.org/data/2.5/weather?lat=43.5263&lon=-111.93302&appid=de6eeb5e838ae1aee6c66e7e9de1f551,7.7
82,Barsau de Sus,92,RO,100,47.63,23.25,33.799999999999955,33.799999999999955,33.799999999999955,https://api.openweathermap.org/data/2.5/weather?lat=47.62667&lon=23.25056&appid=de6eeb5e838ae1aee6c66e7e9de1f551,1.0
83,Santa Lucia La Reforma,20,GT,86,15.13,-91.24,49.37179999999995,49.37179999999995,49.37179999999995,https://api.openweathermap.org/data/2.5/weather?lat=15.12819&lon=-91.23619&appid=de6eeb5e838ae1aee6c66e7e9de1f551,1.22
84,Imeong Hamlet,90,PW,66,7.53,134.53,85.98200000000003,87.80000000000001,84.19999999999999,https://api.openweathermap.org/data/2.5/weather?lat=7.53134&lon=134.52713&appid=de6eeb5e838ae1aee6c66e7e9de1f551,3.1
85,Lubao,44,CD,88,-5.39,25.75,70.74679999999995,70.74679999999995,70.74679999999995,https://api.openweathermap.org/data/2.5/weather?lat=-5.38771&lon=25.74885&appid=de6eeb5e838ae1aee6c66e7e9de1f551,1.17
86,Marshalltown,40,AU,38,-38.18,144.37,73.39999999999992,73.39999999999992,73.39999999999992,https://api.openweathermap.org/data/2.5/weather?lat=-38.17987&lon=144.36765&appid=de6eeb5e838ae1aee6c66e7e9de1f551,8.2
87,Callander,75,GB,80,56.24,-4.22,40.063999999999965,40.99999999999994,39.19999999999993,https://api.openweathermap.org/data/2.5/weather?lat=56.2441&lon=-4.21637&appid=de6eeb5e838ae1aee6c66e7e9de1f551,8.2
88,Maubourguet,90,FR,93,43.47,0.04,51.26000000000005,53.599999999999966,49.99999999999994,https://api.openweathermap.org/data/2.5/weather?lat=43.46824&lon=0.03578&appid=de6eeb5e838ae1aee6c66e7e9de1f551,1.0
89,San Leo,0,IT,92,43.9,12.34,32.61200000000002,35.599999999999966,30.199999999999932,https://api.openweathermap.org/data/2.5/weather?lat=43.89637&lon=12.3446&appid=de6eeb5e838ae1aee6c66e7e9de1f551,1.0
90,Zerok-Alakadari,48,AF,92,33.16,69.31,30.156799999999976,30.156799999999976,30.156799999999976,https://api.openweathermap.org/data/2.5/weather?lat=33.15806&lon=69.31278&appid=de6eeb5e838ae1aee6c66e7e9de1f551,1.12
91,Epagny,90,FR,86,45.94,6.09,34.97000000000003,37.39999999999998,33.799999999999955,https://api.openweathermap.org/data/2.5/weather?lat=45.93805&lon=6.09095&appid=de6eeb5e838ae1aee6c66e7e9de1f551,1.5
92,Tilly-sur-Seulles,90,FR,100,49.18,-0.63,47.58800000000002,48.19999999999993,46.39999999999998,https://api.openweathermap.org/data/2.5/weather?lat=49.17598&lon=-0.62605&appid=de6eeb5e838ae1aee6c66e7e9de1f551,3.6
93,La Garnache,90,FR,93,46.89,-1.83,53.599999999999966,53.599999999999966,53.599999999999966,https://api.openweathermap.org/data/2.5/weather?lat=46.89176&lon=-1.83163&appid=de6eeb5e838ae1aee6c66e7e9de1f551,5.7
94,Marrickville,0,AU,48,-33.9,151.15,84.39799999999997,85.99999999999994,82.39999999999992,https://api.openweathermap.org/data/2.5/weather?lat=-33.90318&lon=151.15176&appid=de6eeb5e838ae1aee6c66e7e9de1f551,8.2
95,San Marcos,0,CR,56,9.68,-84.04,69.80000000000001,69.80000000000001,69.80000000000001,https://api.openweathermap.org/data/2.5/weather?lat=9.68323&lon=-84.0405&appid=de6eeb5e838ae1aee6c66e7e9de1f551,8.7
96,San Ramon,64,PH,53,17.41,120.71,85.55180000000001,85.55180000000001,85.55180000000001,https://api.openweathermap.org/data/2.5/weather?lat=17.4135&lon=120.7076&appid=de6eeb5e838ae1aee6c66e7e9de1f551,1.57
97,Villa de Ves,75,ES,81,39.2,-1.23,44.599999999999966,44.599999999999966,44.599999999999966,https://api.openweathermap.org/data/2.5/weather?lat=39.2&lon=-1.23333&appid=de6eeb5e838ae1aee6c66e7e9de1f551,4.1
98,Canowindra,0,AU,46,-33.56,148.66,76.37179999999995,76.37179999999995,76.37179999999995,https://api.openweathermap.org/data/2.5/weather?lat=-33.56247&lon=148.66434&appid=de6eeb5e838ae1aee6c66e7e9de1f551,3.12
99,Luis Cárdenas,80,MX,98,20.61,-97.5,67.95679999999999,67.95679999999999,67.95679999999999,https://api.openweathermap.org/data/2.5/weather?lat=20.60677&lon=-97.4995&appid=de6eeb5e838ae1aee6c66e7e9de1f551,1.27
100,Wimmelburg,0,DE,92,51.53,11.55,22.999999999999943,22.999999999999943,22.999999999999943,https://api.openweathermap.org/data/2.5/weather?lat=51.52754&lon=11.54835&appid=de6eeb5e838ae1aee6c66e7e9de1f551,3.6
101,Suishan,32,CN,81,29.61,103.49,43.341800000000035,43.341800000000035,43.341800000000035,https://api.openweathermap.org/data/2.5/weather?lat=29.60831&lon=103.48603&appid=de6eeb5e838ae1aee6c66e7e9de1f551,0.92
102,Kostrzyn,90,PL,100,52.4,17.23,28.399999999999977,28.399999999999977,28.399999999999977,https://api.openweathermap.org/data/2.5/weather?lat=52.39847&lon=17.22811&appid=de6eeb5e838ae1aee6c66e7e9de1f551,1.5
103,Cavenago di Brianza,0,IT,76,45.58,9.41,27.968000000000018,31.999999999999943,22.999999999999943,https://api.openweathermap.org/data/2.5/weather?lat=45.58297&lon=9.41261&appid=de6eeb5e838ae1aee6c66e7e9de1f551,1.0
104,Aikmel,75,ID,94,-8.57,116.53,76.99999999999994,76.99999999999994,76.99999999999994,https://api.openweathermap.org/data/2.5/weather?lat=-8.5678&lon=116.5305&appid=de6eeb5e838ae1aee6c66e7e9de1f551,3.6
105,Janesville,1,US,35,40.3,-120.52,40.99999999999994,40.99999999999994,40.99999999999994,https://api.openweathermap.org/data/2.5/weather?lat=40.29656&lon=-120.52411&appid=de6eeb5e838ae1aee6c66e7e9de1f551,3.6
106,Kampala,20,UG,100,0.32,32.58,69.80000000000001,69.80000000000001,69.80000000000001,https://api.openweathermap.org/data/2.5/weather?lat=0.31628&lon=32.58219&appid=de6eeb5e838ae1aee6c66e7e9de1f551,1.0
107,Zacatepec,0,MX,86,19.27,-97.53,45.186800000000005,45.186800000000005,45.186800000000005,https://api.openweathermap.org/data/2.5/weather?lat=19.26631&lon=-97.5328&appid=de6eeb5e838ae1aee6c66e7e9de1f551,1.87
108,Wethersfield,90,GB,100,51.95,0.44,44.29400000000004,44.599999999999966,42.799999999999955,https://api.openweathermap.org/data/2.5/weather?lat=51.94813&lon=0.43645&appid=de6eeb5e838ae1aee6c66e7e9de1f551,5.1
109,Rubiales,0,ES,66,40.28,-1.27,51.799999999999955,51.799999999999955,51.799999999999955,https://api.openweathermap.org/data/2.5/weather?lat=40.27623&lon=-1.27167&appid=de6eeb5e838ae1aee6c66e7e9de1f551,1.5
110,Monforte de la Sierra,92,ES,100,40.48,-6.06,44.82679999999999,44.82679999999999,44.82679999999999,https://api.openweathermap.org/data/2.5/weather?lat=40.48264&lon=-6.05671&appid=de6eeb5e838ae1aee6c66e7e9de1f551,1.07
111,Heze,76,CN,43,35.29,115.09,38.79679999999996,38.79679999999996,38.79679999999996,https://api.openweathermap.org/data/2.5/weather?lat=35.29145&lon=115.09019&appid=de6eeb5e838ae1aee6c66e7e9de1f551,2.57
112,Asselfingen,75,DE,85,48.53,10.19,18.733999999999924,22.999999999999943,12.199999999999932,https://api.openweathermap.org/data/2.5/weather?lat=48.52959&lon=10.19166&appid=de6eeb5e838ae1aee6c66e7e9de1f551,0.5
113,San Eugenio,20,PH,65,16.36,120.36,84.15679999999992,84.15679999999992,84.15679999999992,https://api.openweathermap.org/data/2.5/weather?lat=16.3598&lon=120.357&appid=de6eeb5e838ae1aee6c66e7e9de1f551,1.17
114,Nordreisa,0,NO,100,69.77,21.02,-1.2982000000000085,-1.2982000000000085,-1.2982000000000085,https://api.openweathermap.org/data/2.5/weather?lat=69.76783&lon=21.02466&appid=de6eeb5e838ae1aee6c66e7e9de1f551,1.22
115,Rural Retreat,90,US,76,36.89,-81.28,51.799999999999955,53.599999999999966,48.19999999999993,https://api.openweathermap.org/data/2.5/weather?lat=36.89373&lon=-81.27593&appid=de6eeb5e838ae1aee6c66e7e9de1f551,1.92
116,Manning,1,US,93,33.7,-80.21,56.31800000000004,60.80000000000001,51.799999999999955,https://api.openweathermap.org/data/2.5/weather?lat=33.69516&lon=-80.21091&appid=de6eeb5e838ae1aee6c66e7e9de1f551,3.87
117,Bodenmais,0,DE,92,49.07,13.1,17.599999999999966,17.599999999999966,17.599999999999966,https://api.openweathermap.org/data/2.5/weather?lat=49.06667&lon=13.1&appid=de6eeb5e838ae1aee6c66e7e9de1f551,1.32
118,Pecorara,0,IT,86,44.88,9.38,36.51800000000003,40.99999999999994,31.999999999999943,https://api.openweathermap.org/data/2.5/weather?lat=44.87582&lon=9.38387&appid=de6eeb5e838ae1aee6c66e7e9de1f551,1.0
119,Kedondong,64,ID,89,-5.46,105.0,78.84679999999997,78.84679999999997,78.84679999999997,https://api.openweathermap.org/data/2.5/weather?lat=-5.46284&lon=105.0009&appid=de6eeb5e838ae1aee6c66e7e9de1f551,0.62
120,Ingalls,90,US,100,39.96,-85.81,50.25200000000001,53.599999999999966,44.599999999999966,https://api.openweathermap.org/data/2.5/weather?lat=39.95699&lon=-85.80526&appid=de6eeb5e838ae1aee6c66e7e9de1f551,3.6
121,Soledad Diez Gutierrez,5,MX,62,22.24,-101.04,57.19999999999999,57.19999999999999,57.19999999999999,https://api.openweathermap.org/data/2.5/weather?lat=22.2375&lon=-101.04222&appid=de6eeb5e838ae1aee6c66e7e9de1f551,2.1
122,Saint-Laurent-du-Pape,92,FR,94,44.82,4.76,31.32679999999999,31.32679999999999,31.32679999999999,https://api.openweathermap.org/data/2.5/weather?lat=44.82428&lon=4.76127&appid=de6eeb5e838ae1aee6c66e7e9de1f551,1.82
123,Altmünster,20,AT,92,47.9,13.76,20.26400000000001,21.199999999999932,19.399999999999977,https://api.openweathermap.org/data/2.5/weather?lat=47.90219&lon=13.76415&appid=de6eeb5e838ae1aee6c66e7e9de1f551,0.5
124,Seredka,44,RU,89,58.16,28.19,13.506799999999942,13.506799999999942,13.506799999999942,https://api.openweathermap.org/data/2.5/weather?lat=58.15838&lon=28.18576&appid=de6eeb5e838ae1aee6c66e7e9de1f551,1.82
125,Buenavista,36,MX,88,22.4,-99.6,60.62179999999995,60.62179999999995,60.62179999999995,https://api.openweathermap.org/data/2.5/weather?lat=22.40187&lon=-99.60468&appid=de6eeb5e838ae1aee6c66e7e9de1f551,2.17
126,Loughton,90,GB,100,52.03,-0.79,45.49999999999994,46.39999999999998,44.599999999999966,https://api.openweathermap.org/data/2.5/weather?lat=52.02522&lon=-0.78994&appid=de6eeb5e838ae1aee6c66e7e9de1f551,4.6
127,Kruft,88,DE,63,50.38,7.33,32.396000000000015,35.599999999999966,28.399999999999977,https://api.openweathermap.org/data/2.5/weather?lat=50.38333&lon=7.33333&appid=de6eeb5e838ae1aee6c66e7e9de1f551,3.6
128,Recas,90,RO,100,45.8,21.5,33.799999999999955,33.799999999999955,33.799999999999955,https://api.openweathermap.org/data/2.5/weather?lat=45.79889&lon=21.50083&appid=de6eeb5e838ae1aee6c66e7e9de1f551,1.0
129,Lapi,76,PH,100,17.72,121.9,76.05680000000001,76.05680000000001,76.05680000000001,https://api.openweathermap.org/data/2.5/weather?lat=17.716&lon=121.89775&appid=de6eeb5e838ae1aee6c66e7e9de1f551,0.62
130,Rongjiawan,100,CN,90,29.15,113.1,54.50180000000006,54.50180000000006,54.50180000000006,https://api.openweathermap.org/data/2.5/weather?lat=29.15&lon=113.10243&appid=de6eeb5e838ae1aee6c66e7e9de1f551,4.47
131,Weddersleben,12,DE,77,51.77,11.09,20.07679999999999,20.07679999999999,20.07679999999999,https://api.openweathermap.org/data/2.5/weather?lat=51.76533&lon=11.08531&appid=de6eeb5e838ae1aee6c66e7e9de1f551,2.47
132,Poggio a Caiano,0,IT,86,43.81,11.05,26.186000000000035,33.799999999999955,15.799999999999955,https://api.openweathermap.org/data/2.5/weather?lat=43.81378&lon=11.05186&appid=de6eeb5e838ae1aee6c66e7e9de1f551,0.5
133,Monte Grimano,20,IT,85,43.47,12.47,33.83600000000001,35.599999999999966,31.999999999999943,https://api.openweathermap.org/data/2.5/weather?lat=43.46667&lon=12.46667&appid=de6eeb5e838ae1aee6c66e7e9de1f551,4.6
134,San Jose del Castillo,40,MX,43,20.5,-103.25,69.80000000000001,69.80000000000001,69.80000000000001,https://api.openweathermap.org/data/2.5/weather?lat=20.49528&lon=-103.24833&appid=de6eeb5e838ae1aee6c66e7e9de1f551,2.6
135,Biswan,0,IN,75,27.5,81.0,56.25679999999994,56.25679999999994,56.25679999999994,https://api.openweathermap.org/data/2.5/weather?lat=27.49581&lon=80.99618&appid=de6eeb5e838ae1aee6c66e7e9de1f551,4.22
136,Vadodara,0,IN,49,22.3,73.21,66.42680000000001,66.42680000000001,66.42680000000001,https://api.openweathermap.org/data/2.5/weather?lat=22.29941&lon=73.20812&appid=de6eeb5e838ae1aee6c66e7e9de1f551,5.32
137,Gros Islet,75,LC,73,14.07,-60.95,76.99999999999994,76.99999999999994,76.99999999999994,https://api.openweathermap.org/data/2.5/weather?lat=14.06667&lon=-60.95&appid=de6eeb5e838ae1aee6c66e7e9de1f551,11.8
138,Culasi,12,PH,97,11.43,122.06,80.64679999999993,80.64679999999993,80.64679999999993,https://api.openweathermap.org/data/2.5/weather?lat=11.42721&lon=122.05601&appid=de6eeb5e838ae1aee6c66e7e9de1f551,5.57
139,Cowpens,40,US,87,35.02,-81.8,57.21800000000002,60.80000000000001,53.599999999999966,https://api.openweathermap.org/data/2.5/weather?lat=35.01679&lon=-81.80399&appid=de6eeb5e838ae1aee6c66e7e9de1f551,3.1
140,Milbank,40,US,64,45.22,-96.64,35.14999999999998,39.19999999999993,30.199999999999932,https://api.openweathermap.org/data/2.5/weather?lat=45.21913&lon=-96.63562&appid=de6eeb5e838ae1aee6c66e7e9de1f551,3.6
141,Kyadabek,90,AZ,100,40.59,45.8,39.19999999999993,39.19999999999993,39.19999999999993,https://api.openweathermap.org/data/2.5/weather?lat=40.59313&lon=45.799&appid=de6eeb5e838ae1aee6c66e7e9de1f551,1.0
142,Gresten,20,AT,92,47.99,15.03,21.199999999999932,21.199999999999932,21.199999999999932,https://api.openweathermap.org/data/2.5/weather?lat=47.98521&lon=15.02552&appid=de6eeb5e838ae1aee6c66e7e9de1f551,0.5
143,Vinogradnyy,68,RU,93,45.06,37.32,37.39999999999998,37.39999999999998,37.39999999999998,https://api.openweathermap.org/data/2.5/weather?lat=45.0561&lon=37.32125&appid=de6eeb5e838ae1aee6c66e7e9de1f551,10.0
144,Herzogenburg,0,AT,80,48.28,15.69,30.199999999999932,30.199999999999932,30.199999999999932,https://api.openweathermap.org/data/2.5/weather?lat=48.28137&lon=15.69431&appid=de6eeb5e838ae1aee6c66e7e9de1f551,4.6
145,Cuetzalan del Progreso,80,MX,93,20.02,-97.52,51.48680000000002,51.48680000000002,51.48680000000002,https://api.openweathermap.org/data/2.5/weather?lat=20.01861&lon=-97.52111&appid=de6eeb5e838ae1aee6c66e7e9de1f551,0.92
146,Helensburgh,0,AU,48,-34.18,151.0,84.39799999999997,85.99999999999994,82.39999999999992,https://api.openweathermap.org/data/2.5/weather?lat=-34.17836&lon=150.99522&appid=de6eeb5e838ae1aee6c66e7e9de1f551,8.2
147,Maldaeni,92,RO,100,44.12,24.93,33.351800000000026,33.351800000000026,33.351800000000026,https://api.openweathermap.org/data/2.5/weather?lat=44.11667&lon=24.93333&appid=de6eeb5e838ae1aee6c66e7e9de1f551,3.42
148,Turinskaya Sloboda,68,RU,80,57.62,64.39,8.87179999999995,8.87179999999995,8.87179999999995,https://api.openweathermap.org/data/2.5/weather?lat=57.6232&lon=64.38575&appid=de6eeb5e838ae1aee6c66e7e9de1f551,2.87
149,Montberon,90,FR,93,43.72,1.48,51.799999999999955,51.799999999999955,51.799999999999955,https://api.openweathermap.org/data/2.5/weather?lat=43.71586&lon=1.47968&appid=de6eeb5e838ae1aee6c66e7e9de1f551,4.1
150,Pawing,32,PH,91,11.18,125.0,83.61680000000007,83.61680000000007,83.61680000000007,https://api.openweathermap.org/data/2.5/weather?lat=11.18&lon=125.00278&appid=de6eeb5e838ae1aee6c66e7e9de1f551,5.57
151,Eggleston,20,GB,100,54.61,-2.0,38.31800000000004,39.19999999999993,37.39999999999998,https://api.openweathermap.org/data/2.5/weather?lat=54.60916&lon=-2.00312&appid=de6eeb5e838ae1aee6c66e7e9de1f551,2.1
152,Tricio,20,ES,81,42.4,-2.72,49.99999999999994,49.99999999999994,49.99999999999994,https://api.openweathermap.org/data/2.5/weather?lat=42.40223&lon=-2.71912&appid=de6eeb5e838ae1aee6c66e7e9de1f551,3.1
153,Ningxiang,0,CN,30,37.34,111.21,37.356799999999964,37.356799999999964,37.356799999999964,https://api.openweathermap.org/data/2.5/weather?lat=37.34&lon=111.20523&appid=de6eeb5e838ae1aee6c66e7e9de1f551,1.82
154,Rovinari,68,RO,91,44.92,23.18,28.716800000000035,28.716800000000035,28.716800000000035,https://api.openweathermap.org/data/2.5/weather?lat=44.91667&lon=23.18333&appid=de6eeb5e838ae1aee6c66e7e9de1f551,1.22
155,Villalba de Perejil,0,ES,66,41.33,-1.55,46.363999999999976,51.799999999999955,40.99999999999994,https://api.openweathermap.org/data/2.5/weather?lat=41.32742&lon=-1.54833&appid=de6eeb5e838ae1aee6c66e7e9de1f551,1.5
156,Mendexa,0,ES,76,43.35,-2.48,51.67399999999998,55.39999999999992,49.99999999999994,https://api.openweathermap.org/data/2.5/weather?lat=43.3459&lon=-2.4842&appid=de6eeb5e838ae1aee6c66e7e9de1f551,1.5
157,Veltheim,75,CH,85,47.51,8.72,25.088000000000022,26.599999999999966,22.999999999999943,https://api.openweathermap.org/data/2.5/weather?lat=47.50564&lon=8.72413&appid=de6eeb5e838ae1aee6c66e7e9de1f551,0.5
158,Orio,20,ES,87,43.28,-2.13,49.98199999999997,55.39999999999992,40.99999999999994,https://api.openweathermap.org/data/2.5/weather?lat=43.2787&lon=-2.12537&appid=de6eeb5e838ae1aee6c66e7e9de1f551,2.1
159,Homocea,90,RO,96,46.08,27.27,31.999999999999943,31.999999999999943,31.999999999999943,https://api.openweathermap.org/data/2.5/weather?lat=46.07859&lon=27.27032&appid=de6eeb5e838ae1aee6c66e7e9de1f551,6.2
160,Chofu,75,JP,32,35.65,139.55,53.14999999999992,55.39999999999992,49.99999999999994,https://api.openweathermap.org/data/2.5/weather?lat=35.64837&lon=139.55426&appid=de6eeb5e838ae1aee6c66e7e9de1f551,3.1
161,Zhaoyuan,0,CN,83,45.5,125.13,12.921799999999962,12.921799999999962,12.921799999999962,https://api.openweathermap.org/data/2.5/weather?lat=45.5&lon=125.13333&appid=de6eeb5e838ae1aee6c66e7e9de1f551,4.07
162,Arhavi,20,TR,82,41.28,41.38,49.99999999999994,49.99999999999994,49.99999999999994,https://api.openweathermap.org/data/2.5/weather?lat=41.27896&lon=41.37887&appid=de6eeb5e838ae1aee6c66e7e9de1f551,9.3
163,La Adrada,80,ES,93,40.3,-4.64,39.021799999999985,39.021799999999985,39.021799999999985,https://api.openweathermap.org/data/2.5/weather?lat=40.29953&lon=-4.63589&appid=de6eeb5e838ae1aee6c66e7e9de1f551,1.07
164,Sordillos,88,ES,100,42.46,-4.11,44.599999999999966,44.599999999999966,44.599999999999966,https://api.openweathermap.org/data/2.5/weather?lat=42.46197&lon=-4.10726&appid=de6eeb5e838ae1aee6c66e7e9de1f551,5.1
165,Tellin,75,BE,94,50.08,5.22,34.394000000000005,35.599999999999966,33.799999999999955,https://api.openweathermap.org/data/2.5/weather?lat=50.08038&lon=5.21638&appid=de6eeb5e838ae1aee6c66e7e9de1f551,7.2
166,Afsin,80,TR,80,38.42,36.91,20.70679999999993,20.70679999999993,20.70679999999993,https://api.openweathermap.org/data/2.5/weather?lat=38.41944&lon=36.91222&appid=de6eeb5e838ae1aee6c66e7e9de1f551,1.22
167,Wilson,1,US,72,34.16,-97.43,64.05799999999994,66.19999999999999,62.599999999999966,https://api.openweathermap.org/data/2.5/weather?lat=34.16204&lon=-97.42586&appid=de6eeb5e838ae1aee6c66e7e9de1f551,2.1
168,Andalgala,92,AR,75,-27.6,-66.32,61.5668,61.5668,61.5668,https://api.openweathermap.org/data/2.5/weather?lat=-27.60012&lon=-66.31794&appid=de6eeb5e838ae1aee6c66e7e9de1f551,1.12
169,Panguruan,0,ID,87,2.61,98.7,75.51680000000005,75.51680000000005,75.51680000000005,https://api.openweathermap.org/data/2.5/weather?lat=2.6081&lon=98.6961&appid=de6eeb5e838ae1aee6c66e7e9de1f551,1.02
170,Oguzeli,75,TR,93,36.97,37.51,37.39999999999998,37.39999999999998,37.39999999999998,https://api.openweathermap.org/data/2.5/weather?lat=36.96572&lon=37.51339&appid=de6eeb5e838ae1aee6c66e7e9de1f551,1.0
171,Shupiyan,64,IN,73,33.72,74.83,28.446799999999996,28.446799999999996,28.446799999999996,https://api.openweathermap.org/data/2.5/weather?lat=33.71723&lon=74.83413&appid=de6eeb5e838ae1aee6c66e7e9de1f551,0.62
172,Hospet,0,IN,57,15.27,76.39,70.20679999999999,70.20679999999999,70.20679999999999,https://api.openweathermap.org/data/2.5/weather?lat=15.26954&lon=76.3871&appid=de6eeb5e838ae1aee6c66e7e9de1f551,4.57
173,Green Bay,1,US,94,44.52,-88.02,36.176000000000045,37.39999999999998,35.599999999999966,https://api.openweathermap.org/data/2.5/weather?lat=44.51916&lon=-88.01983&appid=de6eeb5e838ae1aee6c66e7e9de1f551,1.5
174,Biscoitos,75,PT,87,38.78,-27.25,55.39999999999992,55.39999999999992,55.39999999999992,https://api.openweathermap.org/data/2.5/weather?lat=38.78333&lon=-27.25&appid=de6eeb5e838ae1aee6c66e7e9de1f551,5.47
175,Vicovu de Sus,90,RO,100,47.93,25.68,24.799999999999955,24.799999999999955,24.799999999999955,https://api.openweathermap.org/data/2.5/weather?lat=47.93333&lon=25.68333&appid=de6eeb5e838ae1aee6c66e7e9de1f551,4.6
176,Flawil,0,CH,68,47.41,9.18,25.663999999999987,26.599999999999966,24.799999999999955,https://api.openweathermap.org/data/2.5/weather?lat=47.41301&lon=9.18324&appid=de6eeb5e838ae1aee6c66e7e9de1f551,2.1
177,Frascarolo,0,IT,85,45.06,8.67,27.536,31.999999999999943,22.999999999999943,https://api.openweathermap.org/data/2.5/weather?lat=45.05996&lon=8.67094&appid=de6eeb5e838ae1aee6c66e7e9de1f551,3.1
178,Flessau,12,DE,92,52.76,11.67,23.49679999999995,23.49679999999995,23.49679999999995,https://api.openweathermap.org/data/2.5/weather?lat=52.75996&lon=11.67093&appid=de6eeb5e838ae1aee6c66e7e9de1f551,5.87
179,Pilar,36,PH,90,10.81,124.57,82.04180000000002,82.04180000000002,82.04180000000002,https://api.openweathermap.org/data/2.5/weather?lat=10.8065&lon=124.5661&appid=de6eeb5e838ae1aee6c66e7e9de1f551,4.07
180,Oro Verde,0,AR,50,-31.83,-60.52,69.48679999999996,69.48679999999996,69.48679999999996,https://api.openweathermap.org/data/2.5/weather?lat=-31.82508&lon=-60.51749&appid=de6eeb5e838ae1aee6c66e7e9de1f551,3.87
181,Konrat,68,UA,94,45.04,34.4,36.99679999999995,36.99679999999995,36.99679999999995,https://api.openweathermap.org/data/2.5/weather?lat=45.03678&lon=34.39921&appid=de6eeb5e838ae1aee6c66e7e9de1f551,2.22
182,Dudar,0,ES,81,37.19,-3.48,35.599999999999966,35.599999999999966,35.599999999999966,https://api.openweathermap.org/data/2.5/weather?lat=37.18579&lon=-3.48347&appid=de6eeb5e838ae1aee6c66e7e9de1f551,1.07
183,Mayfield,90,US,100,39.49,-84.37,57.39799999999997,60.80000000000001,53.599999999999966,https://api.openweathermap.org/data/2.5/weather?lat=39.49478&lon=-84.37272&appid=de6eeb5e838ae1aee6c66e7e9de1f551,4.6
184,Konnern,0,DE,92,51.67,11.77,22.999999999999943,22.999999999999943,22.999999999999943,https://api.openweathermap.org/data/2.5/weather?lat=51.6712&lon=11.77068&appid=de6eeb5e838ae1aee6c66e7e9de1f551,3.6
185,Fairdale,90,US,87,38.11,-85.76,59.44999999999999,60.80000000000001,57.19999999999999,https://api.openweathermap.org/data/2.5/weather?lat=38.10507&lon=-85.75885&appid=de6eeb5e838ae1aee6c66e7e9de1f551,6.7
186,Sacavem,75,PT,93,38.79,-9.11,55.39999999999992,55.39999999999992,55.39999999999992,https://api.openweathermap.org/data/2.5/weather?lat=38.79202&lon=-9.10801&appid=de6eeb5e838ae1aee6c66e7e9de1f551,3.6
187,Brixham,20,GB,87,50.39,-3.52,48.19999999999993,48.19999999999993,48.19999999999993,https://api.openweathermap.org/data/2.5/weather?lat=50.39431&lon=-3.51585&appid=de6eeb5e838ae1aee6c66e7e9de1f551,4.1
188,Glenboig,75,GB,80,55.89,-4.05,39.73999999999995,40.99999999999994,39.19999999999993,https://api.openweathermap.org/data/2.5/weather?lat=55.89422&lon=-4.04619&appid=de6eeb5e838ae1aee6c66e7e9de1f551,8.2
189,Castleside,20,GB,100,54.83,-1.88,37.849999999999966,39.19999999999993,35.599999999999966,https://api.openweathermap.org/data/2.5/weather?lat=54.83429&lon=-1.87849&appid=de6eeb5e838ae1aee6c66e7e9de1f551,2.1
190,Bahawalpur,0,PK,89,29.4,71.68,54.051800000000014,54.051800000000014,54.051800000000014,https://api.openweathermap.org/data/2.5/weather?lat=29.39779&lon=71.6752&appid=de6eeb5e838ae1aee6c66e7e9de1f551,1.32
191,Milot,75,AL,93,41.71,19.69,37.39999999999998,37.39999999999998,37.39999999999998,https://api.openweathermap.org/data/2.5/weather?lat=41.70778&lon=19.68917&appid=de6eeb5e838ae1aee6c66e7e9de1f551,2.37
192,Loria,0,IT,86,45.73,11.87,30.236000000000047,31.999999999999943,28.399999999999977,https://api.openweathermap.org/data/2.5/weather?lat=45.73&lon=11.8654&appid=de6eeb5e838ae1aee6c66e7e9de1f551,1.0
193,Basehor,90,US,81,39.14,-94.94,48.41599999999994,53.599999999999966,42.799999999999955,https://api.openweathermap.org/data/2.5/weather?lat=39.14167&lon=-94.93858&appid=de6eeb5e838ae1aee6c66e7e9de1f551,4.1
194,Caldwell,1,US,63,37.03,-97.61,61.43000000000001,62.599999999999966,60.80000000000001,https://api.openweathermap.org/data/2.5/weather?lat=37.03225&lon=-97.60699&appid=de6eeb5e838ae1aee6c66e7e9de1f551,5.7
195,Rudnitz,90,DE,100,52.72,13.63,26.599999999999966,26.599999999999966,26.599999999999966,https://api.openweathermap.org/data/2.5/weather?lat=52.72137&lon=13.62502&appid=de6eeb5e838ae1aee6c66e7e9de1f551,3.1
196,Palmarejo,90,PR,73,18.04,-67.08,73.39999999999992,73.39999999999992,73.39999999999992,https://api.openweathermap.org/data/2.5/weather?lat=18.04024&lon=-67.07685&appid=de6eeb5e838ae1aee6c66e7e9de1f551,7.2
197,Berceni,90,RO,96,44.91,26.09,34.71800000000002,35.599999999999966,33.799999999999955,https://api.openweathermap.org/data/2.5/weather?lat=44.91341&lon=26.08726&appid=de6eeb5e838ae1aee6c66e7e9de1f551,2.1
198,Petajavesi,90,FI,92,62.25,25.2,28.399999999999977,28.399999999999977,28.399999999999977,https://api.openweathermap.org/data/2.5/weather?lat=62.25&lon=25.2&appid=de6eeb5e838ae1aee6c66e7e9de1f551,2.1
199,Zomba,92,MW,99,-15.39,35.32,68.85679999999996,68.85679999999996,68.85679999999996,https://api.openweathermap.org/data/2.5/weather?lat=-15.38596&lon=35.3188&appid=de6eeb5e838ae1aee6c66e7e9de1f551,1.42
200,Dunleer,75,IE,80,53.84,-6.4,39.19999999999993,39.19999999999993,39.19999999999993,https://api.openweathermap.org/data/2.5/weather?lat=53.835&lon=-6.39611&appid=de6eeb5e838ae1aee6c66e7e9de1f551,9.3
201,,0,None,99,-8.91,-140.1,81.1868,81.1868,81.1868,https://api.openweathermap.org/data/2.5/weather?lat=-8.91093&lon=-140.09972&appid=de6eeb5e838ae1aee6c66e7e9de1f551,6.62
202,Xiaopu,68,CN,75,25.24,111.32,65.70679999999999,65.70679999999999,65.70679999999999,https://api.openweathermap.org/data/2.5/weather?lat=25.23917&lon=111.31664&appid=de6eeb5e838ae1aee6c66e7e9de1f551,1.82
203,Fajslawice,92,PL,93,51.1,22.96,20.751800000000003,20.751800000000003,20.751800000000003,https://api.openweathermap.org/data/2.5/weather?lat=51.09592&lon=22.96323&appid=de6eeb5e838ae1aee6c66e7e9de1f551,3.82
204,Du Quoin,90,US,100,38.01,-89.24,56.60599999999994,58.99999999999994,55.39999999999992,https://api.openweathermap.org/data/2.5/weather?lat=38.01144&lon=-89.23619&appid=de6eeb5e838ae1aee6c66e7e9de1f551,6.2
205,Malinaw,48,PH,94,8.82,125.19,81.8168,81.8168,81.8168,https://api.openweathermap.org/data/2.5/weather?lat=8.825&lon=125.19306&appid=de6eeb5e838ae1aee6c66e7e9de1f551,2.92
206,Les Montils,90,FR,100,47.49,1.3,45.93199999999996,48.19999999999993,44.599999999999966,https://api.openweathermap.org/data/2.5/weather?lat=47.49499&lon=1.29775&appid=de6eeb5e838ae1aee6c66e7e9de1f551,3.6
207,Ube,75,JP,87,33.94,131.25,50.144000000000005,53.599999999999966,46.39999999999998,https://api.openweathermap.org/data/2.5/weather?lat=33.94306&lon=131.25111&appid=de6eeb5e838ae1aee6c66e7e9de1f551,1.0
208,Heidenheim an der Brenz,75,DE,85,48.68,10.15,24.853999999999985,30.199999999999932,21.199999999999932,https://api.openweathermap.org/data/2.5/weather?lat=48.67798&lon=10.15162&appid=de6eeb5e838ae1aee6c66e7e9de1f551,0.5
209,Monte Alegre,68,BR,95,-2.0,-54.08,74.07679999999999,74.07679999999999,74.07679999999999,https://api.openweathermap.org/data/2.5/weather?lat=-2.00082&lon=-54.08102&appid=de6eeb5e838ae1aee6c66e7e9de1f551,0.87
210,Spangenberg,75,DE,74,51.12,9.66,28.399999999999977,28.399999999999977,28.399999999999977,https://api.openweathermap.org/data/2.5/weather?lat=51.11644&lon=9.6627&appid=de6eeb5e838ae1aee6c66e7e9de1f551,1.5
211,Sohagpur,0,IN,72,22.7,78.2,56.571799999999996,56.571799999999996,56.571799999999996,https://api.openweathermap.org/data/2.5/weather?lat=22.70055&lon=78.19522&appid=de6eeb5e838ae1aee6c66e7e9de1f551,1.32
212,Jezdovec,0,HR,92,45.78,15.85,21.991999999999962,26.599999999999966,17.599999999999966,https://api.openweathermap.org/data/2.5/weather?lat=45.78333&lon=15.85&appid=de6eeb5e838ae1aee6c66e7e9de1f551,1.0
213,Maruko,75,JP,74,36.32,138.27,35.599999999999966,35.599999999999966,35.599999999999966,https://api.openweathermap.org/data/2.5/weather?lat=36.31865&lon=138.27329&appid=de6eeb5e838ae1aee6c66e7e9de1f551,1.5
214,Glade Spring,90,US,100,36.79,-81.77,52.916,57.19999999999999,48.19999999999993,https://api.openweathermap.org/data/2.5/weather?lat=36.79122&lon=-81.77123&appid=de6eeb5e838ae1aee6c66e7e9de1f551,2.6
215,Toccoa,75,US,82,34.58,-83.33,58.28000000000003,60.80000000000001,57.19999999999999,https://api.openweathermap.org/data/2.5/weather?lat=34.57732&lon=-83.33239&appid=de6eeb5e838ae1aee6c66e7e9de1f551,2.1
216,Chennai,20,IN,88,13.09,80.28,78.80000000000001,78.80000000000001,78.80000000000001,https://api.openweathermap.org/data/2.5/weather?lat=13.0926&lon=80.2801&appid=de6eeb5e838ae1aee6c66e7e9de1f551,1.5
217,Rosaryville,20,US,76,38.76,-76.81,47.299999999999955,51.799999999999955,42.799999999999955,https://api.openweathermap.org/data/2.5/weather?lat=38.75678&lon=-76.80969&appid=de6eeb5e838ae1aee6c66e7e9de1f551,4.1
218,Tungi,0,BD,82,23.89,90.4,67.99999999999994,67.99999999999994,67.99999999999994,https://api.openweathermap.org/data/2.5/weather?lat=23.89154&lon=90.40232&appid=de6eeb5e838ae1aee6c66e7e9de1f551,2.1
219,Sungaidua,64,ID,67,-3.61,115.94,86.90180000000004,86.90180000000004,86.90180000000004,https://api.openweathermap.org/data/2.5/weather?lat=-3.6075&lon=115.9381&appid=de6eeb5e838ae1aee6c66e7e9de1f551,3.37
220,Baringo,0,KE,86,0.47,35.97,53.82679999999999,53.82679999999999,53.82679999999999,https://api.openweathermap.org/data/2.5/weather?lat=0.46667&lon=35.96667&appid=de6eeb5e838ae1aee6c66e7e9de1f551,0.67
221,Irugur,20,IN,88,11.02,77.06,71.59999999999997,71.59999999999997,71.59999999999997,https://api.openweathermap.org/data/2.5/weather?lat=11.01782&lon=77.06285&appid=de6eeb5e838ae1aee6c66e7e9de1f551,2.1
222,Havirov,90,CZ,92,49.78,18.44,30.199999999999932,30.199999999999932,30.199999999999932,https://api.openweathermap.org/data/2.5/weather?lat=49.77984&lon=18.43688&appid=de6eeb5e838ae1aee6c66e7e9de1f551,3.6
223,Manchaca,1,US,100,30.14,-97.83,62.34800000000001,64.39999999999992,60.80000000000001,https://api.openweathermap.org/data/2.5/weather?lat=30.14077&lon=-97.83306&appid=de6eeb5e838ae1aee6c66e7e9de1f551,3.1
224,Masio,0,IT,56,44.87,8.41,37.02199999999999,40.99999999999994,33.799999999999955,https://api.openweathermap.org/data/2.5/weather?lat=44.86965&lon=8.40774&appid=de6eeb5e838ae1aee6c66e7e9de1f551,3.1
225,Lery,90,FR,100,49.29,1.21,41.44999999999993,42.799999999999955,40.99999999999994,https://api.openweathermap.org/data/2.5/weather?lat=49.28585&lon=1.20768&appid=de6eeb5e838ae1aee6c66e7e9de1f551,3.6
226,Ramsin,0,DE,92,51.61,12.24,24.00799999999998,24.799999999999955,22.999999999999943,https://api.openweathermap.org/data/2.5/weather?lat=51.61095&lon=12.23812&appid=de6eeb5e838ae1aee6c66e7e9de1f551,3.6
227,Zelistrzewo,90,PL,100,54.68,18.42,24.799999999999955,24.799999999999955,24.799999999999955,https://api.openweathermap.org/data/2.5/weather?lat=54.6777&lon=18.41738&appid=de6eeb5e838ae1aee6c66e7e9de1f551,0.5
228,Meissenheim,0,DE,74,48.41,7.77,33.799999999999955,33.799999999999955,33.799999999999955,https://api.openweathermap.org/data/2.5/weather?lat=48.41035&lon=7.77266&appid=de6eeb5e838ae1aee6c66e7e9de1f551,2.6
229,Plateros,40,MX,48,23.32,-103.01,62.599999999999966,62.599999999999966,62.599999999999966,https://api.openweathermap.org/data/2.5/weather?lat=23.32278&lon=-103.01444&appid=de6eeb5e838ae1aee6c66e7e9de1f551,4.6
230,Refojos de Basto,90,PT,100,41.51,-7.99,55.39999999999992,55.39999999999992,55.39999999999992,https://api.openweathermap.org/data/2.5/weather?lat=41.51431&lon=-7.98942&appid=de6eeb5e838ae1aee6c66e7e9de1f551,7.7
231,Oliena,40,IT,86,40.28,9.4,40.99999999999994,40.99999999999994,40.99999999999994,https://api.openweathermap.org/data/2.5/weather?lat=40.27617&lon=9.40193&appid=de6eeb5e838ae1aee6c66e7e9de1f551,4.1
232,Hahnheim,0,DE,74,49.86,8.24,30.79400000000004,31.999999999999943,30.199999999999932,https://api.openweathermap.org/data/2.5/weather?lat=49.86083&lon=8.23694&appid=de6eeb5e838ae1aee6c66e7e9de1f551,3.1
233,Posadina,92,ES,96,42.63,-6.56,45.45679999999993,45.45679999999993,45.45679999999993,https://api.openweathermap.org/data/2.5/weather?lat=42.62519&lon=-6.5636&appid=de6eeb5e838ae1aee6c66e7e9de1f551,1.67
234,Ashby de la Zouch,0,GB,93,52.75,-1.47,42.926000000000045,44.599999999999966,40.99999999999994,https://api.openweathermap.org/data/2.5/weather?lat=52.74632&lon=-1.4732&appid=de6eeb5e838ae1aee6c66e7e9de1f551,6.7
235,Baoqing,0,CN,71,46.33,132.21,14.406799999999976,14.406799999999976,14.406799999999976,https://api.openweathermap.org/data/2.5/weather?lat=46.33167&lon=132.21111&appid=de6eeb5e838ae1aee6c66e7e9de1f551,4.37
236,Albrechtice nad Orlici,0,CZ,86,50.14,16.06,25.628000000000043,26.599999999999966,24.799999999999955,https://api.openweathermap.org/data/2.5/weather?lat=50.13979&lon=16.06437&appid=de6eeb5e838ae1aee6c66e7e9de1f551,1.32
237,Kontagora,8,NG,60,10.4,5.47,69.30680000000001,69.30680000000001,69.30680000000001,https://api.openweathermap.org/data/2.5/weather?lat=10.40319&lon=5.4708&appid=de6eeb5e838ae1aee6c66e7e9de1f551,1.37
238,Corail,20,HT,84,18.57,-73.89,78.03680000000003,78.03680000000003,78.03680000000003,https://api.openweathermap.org/data/2.5/weather?lat=18.56766&lon=-73.88942&appid=de6eeb5e838ae1aee6c66e7e9de1f551,4.92
239,Obiliq,75,XK,79,42.69,21.07,31.999999999999943,31.999999999999943,31.999999999999943,https://api.openweathermap.org/data/2.5/weather?lat=42.68694&lon=21.07028&appid=de6eeb5e838ae1aee6c66e7e9de1f551,1.0
240,Estevelles,90,FR,100,50.48,2.91,38.31800000000004,39.19999999999993,37.39999999999998,https://api.openweathermap.org/data/2.5/weather?lat=50.47653&lon=2.90928&appid=de6eeb5e838ae1aee6c66e7e9de1f551,6.7
241,Busano,40,IT,74,45.33,7.65,38.120000000000005,48.19999999999993,30.199999999999932,https://api.openweathermap.org/data/2.5/weather?lat=45.33042&lon=7.649&appid=de6eeb5e838ae1aee6c66e7e9de1f551,0.5
242,Forest Hill,1,US,77,32.67,-97.27,65.57,71.59999999999997,60.80000000000001,https://api.openweathermap.org/data/2.5/weather?lat=32.67208&lon=-97.26918&appid=de6eeb5e838ae1aee6c66e7e9de1f551,4.1
243,Newbiggin,20,GB,100,54.64,-2.14,38.31800000000004,39.19999999999993,37.39999999999998,https://api.openweathermap.org/data/2.5/weather?lat=54.64171&lon=-2.13555&appid=de6eeb5e838ae1aee6c66e7e9de1f551,2.1
244,Orchard City,75,US,43,38.83,-107.97,46.86800000000005,49.99999999999994,44.599999999999966,https://api.openweathermap.org/data/2.5/weather?lat=38.82832&lon=-107.9709&appid=de6eeb5e838ae1aee6c66e7e9de1f551,2.87
245,Khromtau,8,KZ,72,50.25,58.44,-6.383200000000045,-6.383200000000045,-6.383200000000045,https://api.openweathermap.org/data/2.5/weather?lat=50.25117&lon=58.44003&appid=de6eeb5e838ae1aee6c66e7e9de1f551,1.77
246,Chesterfield,1,US,87,37.38,-77.51,49.406000000000006,51.799999999999955,48.19999999999993,https://api.openweathermap.org/data/2.5/weather?lat=37.37709&lon=-77.50582&appid=de6eeb5e838ae1aee6c66e7e9de1f551,1.5
247,Lansdowne,90,US,75,39.94,-75.27,47.120000000000005,49.99999999999994,44.599999999999966,https://api.openweathermap.org/data/2.5/weather?lat=39.93817&lon=-75.27185&appid=de6eeb5e838ae1aee6c66e7e9de1f551,3.1
248,Teshig,0,MN,55,49.95,102.66,9.276800000000037,9.276800000000037,9.276800000000037,https://api.openweathermap.org/data/2.5/weather?lat=49.94669&lon=102.66123&appid=de6eeb5e838ae1aee6c66e7e9de1f551,1.07
249,Angwin,1,US,62,38.58,-122.45,51.02600000000007,53.599999999999966,48.19999999999993,https://api.openweathermap.org/data/2.5/weather?lat=38.57574&lon=-122.44998&appid=de6eeb5e838ae1aee6c66e7e9de1f551,4.1
250,Oak Hill,90,US,100,40.41,-82.24,46.72399999999999,57.19999999999999,39.19999999999993,https://api.openweathermap.org/data/2.5/weather?lat=40.41423&lon=-82.24099&appid=de6eeb5e838ae1aee6c66e7e9de1f551,2.32
251,Lerbach,32,DE,77,51.73,10.25,22.416800000000023,22.416800000000023,22.416800000000023,https://api.openweathermap.org/data/2.5/weather?lat=51.72686&lon=10.25089&appid=de6eeb5e838ae1aee6c66e7e9de1f551,3.87
252,Wolfschlugen,0,DE,63,48.65,9.28,25.033999999999935,30.199999999999932,21.199999999999932,https://api.openweathermap.org/data/2.5/weather?lat=48.65&lon=9.28333&appid=de6eeb5e838ae1aee6c66e7e9de1f551,1.0
253,Salem,1,US,70,44.94,-123.04,44.22199999999998,46.39999999999998,42.799999999999955,https://api.openweathermap.org/data/2.5/weather?lat=44.9429&lon=-123.0351&appid=de6eeb5e838ae1aee6c66e7e9de1f551,2.72
254,Golconda,90,US,100,37.37,-88.49,59.018000000000086,60.80000000000001,57.19999999999999,https://api.openweathermap.org/data/2.5/weather?lat=37.36727&lon=-88.48643&appid=de6eeb5e838ae1aee6c66e7e9de1f551,4.6
255,Bredene,75,BE,86,51.23,2.98,39.19999999999993,39.19999999999993,39.19999999999993,https://api.openweathermap.org/data/2.5/weather?lat=51.23489&lon=2.97559&appid=de6eeb5e838ae1aee6c66e7e9de1f551,7.2
256,East Oakdale,20,US,52,37.79,-120.8,55.057999999999936,62.599999999999966,46.39999999999998,https://api.openweathermap.org/data/2.5/weather?lat=37.78798&lon=-120.80382&appid=de6eeb5e838ae1aee6c66e7e9de1f551,1.5
257,Sarmede,0,IT,86,45.98,12.39,30.218000000000018,31.999999999999943,28.399999999999977,https://api.openweathermap.org/data/2.5/weather?lat=45.97625&lon=12.38581&appid=de6eeb5e838ae1aee6c66e7e9de1f551,1.0
258,Cogan,75,PH,74,10.59,124.02,84.19999999999999,84.19999999999999,84.19999999999999,https://api.openweathermap.org/data/2.5/weather?lat=10.59306&lon=124.01778&appid=de6eeb5e838ae1aee6c66e7e9de1f551,4.6
259,Cachira,40,CO,83,7.74,-73.05,71.51000000000005,75.19999999999999,67.99999999999994,https://api.openweathermap.org/data/2.5/weather?lat=7.74104&lon=-73.0483&appid=de6eeb5e838ae1aee6c66e7e9de1f551,1.0
260,Controne,75,IT,100,40.51,15.2,26.599999999999966,26.599999999999966,26.599999999999966,https://api.openweathermap.org/data/2.5/weather?lat=40.51018&lon=15.20404&appid=de6eeb5e838ae1aee6c66e7e9de1f551,4.1
261,Al Mafraq,68,JO,75,32.18,36.3,46.39999999999998,46.39999999999998,46.39999999999998,https://api.openweathermap.org/data/2.5/weather?lat=32.179&lon=36.30326&appid=de6eeb5e838ae1aee6c66e7e9de1f551,1.5
262,Peronne,90,FR,100,49.93,2.93,39.19999999999993,39.19999999999993,39.19999999999993,https://api.openweathermap.org/data/2.5/weather?lat=49.93333&lon=2.93333&appid=de6eeb5e838ae1aee6c66e7e9de1f551,6.2
263,Carlos Reyles,0,UY,59,-33.02,-56.48,69.84679999999997,69.84679999999997,69.84679999999997,https://api.openweathermap.org/data/2.5/weather?lat=-33.01667&lon=-56.48333&appid=de6eeb5e838ae1aee6c66e7e9de1f551,8.07
264,Carranque,20,ES,100,40.17,-3.9,39.73999999999995,42.799999999999955,37.39999999999998,https://api.openweathermap.org/data/2.5/weather?lat=40.16976&lon=-3.90092&appid=de6eeb5e838ae1aee6c66e7e9de1f551,1.0
265,Bensdorf,90,DE,100,52.42,12.33,26.599999999999966,26.599999999999966,26.599999999999966,https://api.openweathermap.org/data/2.5/weather?lat=52.41667&lon=12.33333&appid=de6eeb5e838ae1aee6c66e7e9de1f551,3.1
266,Weener,75,DE,59,53.16,7.35,35.599999999999966,35.599999999999966,35.599999999999966,https://api.openweathermap.org/data/2.5/weather?lat=53.16332&lon=7.35052&appid=de6eeb5e838ae1aee6c66e7e9de1f551,7.2
267,Vidovci,0,HR,91,45.33,17.71,31.999999999999943,31.999999999999943,31.999999999999943,https://api.openweathermap.org/data/2.5/weather?lat=45.3325&lon=17.71472&appid=de6eeb5e838ae1aee6c66e7e9de1f551,2.1
268,Manturovo,90,RU,92,51.45,37.13,21.199999999999932,21.199999999999932,21.199999999999932,https://api.openweathermap.org/data/2.5/weather?lat=51.4547&lon=37.1282&appid=de6eeb5e838ae1aee6c66e7e9de1f551,4.0
269,Lapusnicu Mare,90,RO,100,44.91,21.94,33.799999999999955,33.799999999999955,33.799999999999955,https://api.openweathermap.org/data/2.5/weather?lat=44.91306&lon=21.94417&appid=de6eeb5e838ae1aee6c66e7e9de1f551,2.6
270,Gemeente Someren,40,NL,86,51.38,5.71,34.84400000000005,37.39999999999998,33.799999999999955,https://api.openweathermap.org/data/2.5/weather?lat=51.385&lon=5.71111&appid=de6eeb5e838ae1aee6c66e7e9de1f551,5.1
271,Marksuhl,0,DE,74,50.92,10.2,28.399999999999977,28.399999999999977,28.399999999999977,https://api.openweathermap.org/data/2.5/weather?lat=50.91667&lon=10.2&appid=de6eeb5e838ae1aee6c66e7e9de1f551,5.1
272,Paracuaro,40,MX,40,20.19,-100.76,71.59999999999997,71.59999999999997,71.59999999999997,https://api.openweathermap.org/data/2.5/weather?lat=20.19353&lon=-100.75941&appid=de6eeb5e838ae1aee6c66e7e9de1f551,2.1
273,Pankotaitanya,92,HU,100,47.92,22.27,33.799999999999955,33.799999999999955,33.799999999999955,https://api.openweathermap.org/data/2.5/weather?lat=47.91667&lon=22.26667&appid=de6eeb5e838ae1aee6c66e7e9de1f551,1.92
274,San Juan,68,PE,100,-13.2,-75.65,45.00679999999994,45.00679999999994,45.00679999999994,https://api.openweathermap.org/data/2.5/weather?lat=-13.2&lon=-75.65&appid=de6eeb5e838ae1aee6c66e7e9de1f551,1.07
275,Rohrbach an der Goelsen,0,AT,86,48.05,15.74,28.399999999999977,28.399999999999977,28.399999999999977,https://api.openweathermap.org/data/2.5/weather?lat=48.04699&lon=15.74169&appid=de6eeb5e838ae1aee6c66e7e9de1f551,4.1
276,Alcains,92,PT,97,39.92,-7.46,47.34679999999997,47.34679999999997,47.34679999999997,https://api.openweathermap.org/data/2.5/weather?lat=39.91642&lon=-7.45655&appid=de6eeb5e838ae1aee6c66e7e9de1f551,1.87
277,Junqueira,90,PT,100,41.35,-8.74,55.39999999999992,55.39999999999992,55.39999999999992,https://api.openweathermap.org/data/2.5/weather?lat=41.35481&lon=-8.7434&appid=de6eeb5e838ae1aee6c66e7e9de1f551,7.7
278,Birine,0,DZ,90,35.63,3.23,36.141800000000046,36.141800000000046,36.141800000000046,https://api.openweathermap.org/data/2.5/weather?lat=35.635&lon=3.225&appid=de6eeb5e838ae1aee6c66e7e9de1f551,2.57
279,Pollena Trocchia,40,IT,69,40.85,14.38,37.39999999999998,37.39999999999998,37.39999999999998,https://api.openweathermap.org/data/2.5/weather?lat=40.85134&lon=14.37911&appid=de6eeb5e838ae1aee6c66e7e9de1f551,2.1
280,Innerbraz,0,AT,85,47.15,9.92,11.965999999999951,26.599999999999966,-9.399999999999977,https://api.openweathermap.org/data/2.5/weather?lat=47.15&lon=9.91667&appid=de6eeb5e838ae1aee6c66e7e9de1f551,1.0
281,Obergrunstedt,0,DE,74,50.96,11.26,28.399999999999977,28.399999999999977,28.399999999999977,https://api.openweathermap.org/data/2.5/weather?lat=50.96136&lon=11.25971&appid=de6eeb5e838ae1aee6c66e7e9de1f551,5.1
282,Happy Valley,75,AU,52,-35.08,138.54,69.80000000000001,69.80000000000001,69.80000000000001,https://api.openweathermap.org/data/2.5/weather?lat=-35.07576&lon=138.54189&appid=de6eeb5e838ae1aee6c66e7e9de1f551,3.6
283,Campo,75,PT,100,40.71,-7.91,55.39999999999992,55.39999999999992,55.39999999999992,https://api.openweathermap.org/data/2.5/weather?lat=40.71086&lon=-7.91445&appid=de6eeb5e838ae1aee6c66e7e9de1f551,5.7
284,Maly Plock,76,PL,89,53.3,22.03,20.796799999999962,20.796799999999962,20.796799999999962,https://api.openweathermap.org/data/2.5/weather?lat=53.30385&lon=22.02836&appid=de6eeb5e838ae1aee6c66e7e9de1f551,2.37
285,Kandukur,20,IN,86,15.22,79.9,72.45679999999999,72.45679999999999,72.45679999999999,https://api.openweathermap.org/data/2.5/weather?lat=15.21542&lon=79.9039&appid=de6eeb5e838ae1aee6c66e7e9de1f551,3.07
286,Ballater,36,GB,86,57.05,-3.04,37.39999999999998,37.39999999999998,37.39999999999998,https://api.openweathermap.org/data/2.5/weather?lat=57.05011&lon=-3.03798&appid=de6eeb5e838ae1aee6c66e7e9de1f551,6.2
287,Walford,1,US,93,41.88,-91.83,38.012,39.19999999999993,35.599999999999966,https://api.openweathermap.org/data/2.5/weather?lat=41.87834&lon=-91.83462&appid=de6eeb5e838ae1aee6c66e7e9de1f551,3.6
288,Bytosh,90,RU,85,53.82,34.09,17.599999999999966,17.599999999999966,17.599999999999966,https://api.openweathermap.org/data/2.5/weather?lat=53.81861&lon=34.09116&appid=de6eeb5e838ae1aee6c66e7e9de1f551,2.0
289,Aquilonia,75,IT,100,40.99,15.48,26.599999999999966,26.599999999999966,26.599999999999966,https://api.openweathermap.org/data/2.5/weather?lat=40.98688&lon=15.4751&appid=de6eeb5e838ae1aee6c66e7e9de1f551,4.1
290,Faribault,1,US,74,44.29,-93.27,36.08600000000001,37.39999999999998,33.799999999999955,https://api.openweathermap.org/data/2.5/weather?lat=44.29496&lon=-93.26883&appid=de6eeb5e838ae1aee6c66e7e9de1f551,2.6
291,Ban Talat Bueng,20,TH,65,13.07,101.0,82.39999999999992,82.39999999999992,82.39999999999992,https://api.openweathermap.org/data/2.5/weather?lat=13.07147&lon=101.00314&appid=de6eeb5e838ae1aee6c66e7e9de1f551,3.1
292,Diegten,64,CH,92,47.41,7.81,25.53800000000001,28.399999999999977,22.999999999999943,https://api.openweathermap.org/data/2.5/weather?lat=47.4138&lon=7.81085&appid=de6eeb5e838ae1aee6c66e7e9de1f551,1.0
293,Normanhurst,0,AU,51,-33.73,151.1,84.27199999999999,87.80000000000001,80.59999999999997,https://api.openweathermap.org/data/2.5/weather?lat=-33.73333&lon=151.1&appid=de6eeb5e838ae1aee6c66e7e9de1f551,9.3
294,Ustye,56,RU,81,59.63,39.74,6.4868000000000166,6.4868000000000166,6.4868000000000166,https://api.openweathermap.org/data/2.5/weather?lat=59.63043&lon=39.73596&appid=de6eeb5e838ae1aee6c66e7e9de1f551,2.07
295,Denain,90,FR,100,50.33,3.39,37.99400000000003,39.19999999999993,37.39999999999998,https://api.openweathermap.org/data/2.5/weather?lat=50.3293&lon=3.3943&appid=de6eeb5e838ae1aee6c66e7e9de1f551,6.7
296,Politischer Bezirk Dornbirn,0,AT,85,47.41,9.74,25.736000000000047,26.599999999999966,24.799999999999955,https://api.openweathermap.org/data/2.5/weather?lat=47.41427&lon=9.74195&appid=de6eeb5e838ae1aee6c66e7e9de1f551,1.0
297,Lysyanka,88,UA,88,49.25,30.83,19.851800000000026,19.851800000000026,19.851800000000026,https://api.openweathermap.org/data/2.5/weather?lat=49.25229&lon=30.82946&appid=de6eeb5e838ae1aee6c66e7e9de1f551,4.17
298,Muskiz,0,ES,76,43.33,-3.1,51.60200000000003,55.39999999999992,49.99999999999994,https://api.openweathermap.org/data/2.5/weather?lat=43.33333&lon=-3.1&appid=de6eeb5e838ae1aee6c66e7e9de1f551,1.5
299,Culhat,75,FR,81,45.86,3.34,42.799999999999955,42.799999999999955,42.799999999999955,https://api.openweathermap.org/data/2.5/weather?lat=45.86254&lon=3.33566&appid=de6eeb5e838ae1aee6c66e7e9de1f551,4.1
300,Ozorkow,75,PL,92,51.96,19.29,28.399999999999977,28.399999999999977,28.399999999999977,https://api.openweathermap.org/data/2.5/weather?lat=51.96336&lon=19.29139&appid=de6eeb5e838ae1aee6c66e7e9de1f551,4.6
301,Foso,12,GH,91,5.7,-1.29,74.79680000000002,74.79680000000002,74.79680000000002,https://api.openweathermap.org/data/2.5/weather?lat=5.70119&lon=-1.28657&appid=de6eeb5e838ae1aee6c66e7e9de1f551,2.42
302,Ool,90,NL,90,51.18,5.96,35.38399999999996,37.39999999999998,33.799999999999955,https://api.openweathermap.org/data/2.5/weather?lat=51.18083&lon=5.9625&appid=de6eeb5e838ae1aee6c66e7e9de1f551,5.7
303,Vista Hermosa,75,MX,40,19.52,-99.22,61.37600000000003,67.99999999999994,55.39999999999992,https://api.openweathermap.org/data/2.5/weather?lat=19.51616&lon=-99.22335&appid=de6eeb5e838ae1aee6c66e7e9de1f551,5.1
304,Waischenfeld,0,DE,85,49.85,11.35,18.410000000000025,19.399999999999977,17.599999999999966,https://api.openweathermap.org/data/2.5/weather?lat=49.84645&lon=11.3481&appid=de6eeb5e838ae1aee6c66e7e9de1f551,3.1
305,Nirasaki,75,JP,53,35.7,138.45,51.799999999999955,51.799999999999955,51.799999999999955,https://api.openweathermap.org/data/2.5/weather?lat=35.7&lon=138.45&appid=de6eeb5e838ae1aee6c66e7e9de1f551,2.1
306,Tunes,0,PT,87,37.17,-8.26,48.19999999999993,48.19999999999993,48.19999999999993,https://api.openweathermap.org/data/2.5/weather?lat=37.16592&lon=-8.25919&appid=de6eeb5e838ae1aee6c66e7e9de1f551,1.12
307,Saint-Valery-en-Caux,90,FR,93,49.87,0.73,45.19400000000002,48.19999999999993,40.99999999999994,https://api.openweathermap.org/data/2.5/weather?lat=49.86667&lon=0.73333&appid=de6eeb5e838ae1aee6c66e7e9de1f551,6.2
308,Gordoncillo,92,ES,97,42.14,-5.4,47.7518,47.7518,47.7518,https://api.openweathermap.org/data/2.5/weather?lat=42.13557&lon=-5.40181&appid=de6eeb5e838ae1aee6c66e7e9de1f551,5.37
309,North East,90,US,100,42.22,-79.83,37.831999999999994,44.599999999999966,30.199999999999932,https://api.openweathermap.org/data/2.5/weather?lat=42.21561&lon=-79.83422&appid=de6eeb5e838ae1aee6c66e7e9de1f551,2.1
310,Brunn,90,DE,100,49.24,12.19,19.18399999999997,21.199999999999932,17.599999999999966,https://api.openweathermap.org/data/2.5/weather?lat=49.23632&lon=12.19156&appid=de6eeb5e838ae1aee6c66e7e9de1f551,3.62
311,Lledrod,20,GB,87,52.3,-3.98,46.39999999999998,46.39999999999998,46.39999999999998,https://api.openweathermap.org/data/2.5/weather?lat=52.3&lon=-3.98333&appid=de6eeb5e838ae1aee6c66e7e9de1f551,11.3
312,Radenkovic,90,RS,100,44.92,19.5,33.799999999999955,33.799999999999955,33.799999999999955,https://api.openweathermap.org/data/2.5/weather?lat=44.92191&lon=19.49543&appid=de6eeb5e838ae1aee6c66e7e9de1f551,1.5
313,Levate,0,IT,74,45.63,9.62,29.822000000000003,31.999999999999943,26.599999999999966,https://api.openweathermap.org/data/2.5/weather?lat=45.62518&lon=9.62415&appid=de6eeb5e838ae1aee6c66e7e9de1f551,2.6
314,Santo Tomas,75,PH,69,15.03,120.8,85.51399999999995,87.80000000000001,82.39999999999992,https://api.openweathermap.org/data/2.5/weather?lat=15.0333&lon=120.8&appid=de6eeb5e838ae1aee6c66e7e9de1f551,1.0
315,Yarqa,56,JO,75,31.98,35.7,46.39999999999998,46.39999999999998,46.39999999999998,https://api.openweathermap.org/data/2.5/weather?lat=31.97583&lon=35.69638&appid=de6eeb5e838ae1aee6c66e7e9de1f551,1.5
316,Calama,0,CL,55,-22.46,-68.92,62.599999999999966,62.599999999999966,62.599999999999966,https://api.openweathermap.org/data/2.5/weather?lat=-22.45667&lon=-68.92371&appid=de6eeb5e838ae1aee6c66e7e9de1f551,3.6
317,Patonan,75,PH,74,10.57,123.47,84.19999999999999,84.19999999999999,84.19999999999999,https://api.openweathermap.org/data/2.5/weather?lat=10.56816&lon=123.4723&appid=de6eeb5e838ae1aee6c66e7e9de1f551,4.6
318,Marienville,90,US,87,41.47,-79.12,42.799999999999955,42.799999999999955,42.799999999999955,https://api.openweathermap.org/data/2.5/weather?lat=41.46895&lon=-79.1231&appid=de6eeb5e838ae1aee6c66e7e9de1f551,2.32
319,Ratanada,0,IN,54,26.27,73.01,55.80680000000001,55.80680000000001,55.80680000000001,https://api.openweathermap.org/data/2.5/weather?lat=26.26841&lon=73.00594&appid=de6eeb5e838ae1aee6c66e7e9de1f551,1.72
320,Dorcheh Piaz,0,IR,64,32.62,51.56,31.999999999999943,31.999999999999943,31.999999999999943,https://api.openweathermap.org/data/2.5/weather?lat=32.61528&lon=51.55556&appid=de6eeb5e838ae1aee6c66e7e9de1f551,2.1
321,Parempuyre,90,FR,93,44.95,-0.6,55.39999999999992,55.39999999999992,55.39999999999992,https://api.openweathermap.org/data/2.5/weather?lat=44.95038&lon=-0.60453&appid=de6eeb5e838ae1aee6c66e7e9de1f551,6.2
322,Ashmun,0,EG,76,30.3,30.98,57.19999999999999,57.19999999999999,57.19999999999999,https://api.openweathermap.org/data/2.5/weather?lat=30.29735&lon=30.97641&appid=de6eeb5e838ae1aee6c66e7e9de1f551,4.6
323,El Guantillo,75,HN,78,14.6,-87.3,69.72800000000001,71.59999999999997,67.99999999999994,https://api.openweathermap.org/data/2.5/weather?lat=14.6&lon=-87.3&appid=de6eeb5e838ae1aee6c66e7e9de1f551,4.6
324,East End,20,KY,83,19.3,-81.12,76.99999999999994,76.99999999999994,76.99999999999994,https://api.openweathermap.org/data/2.5/weather?lat=19.3&lon=-81.11667&appid=de6eeb5e838ae1aee6c66e7e9de1f551,5.1
325,Telmankend,24,AZ,90,39.93,48.37,30.876800000000003,30.876800000000003,30.876800000000003,https://api.openweathermap.org/data/2.5/weather?lat=39.93214&lon=48.36892&appid=de6eeb5e838ae1aee6c66e7e9de1f551,1.37
326,Tlapehuala,56,MX,53,18.24,-100.56,71.24180000000007,71.24180000000007,71.24180000000007,https://api.openweathermap.org/data/2.5/weather?lat=18.24472&lon=-100.56&appid=de6eeb5e838ae1aee6c66e7e9de1f551,0.62
327,Riano,8,ES,87,42.98,-5.0,38.16680000000002,38.16680000000002,38.16680000000002,https://api.openweathermap.org/data/2.5/weather?lat=42.97705&lon=-5.00352&appid=de6eeb5e838ae1aee6c66e7e9de1f551,1.07
328,Nommern,92,LU,91,49.79,6.17,31.999999999999943,31.999999999999943,31.999999999999943,https://api.openweathermap.org/data/2.5/weather?lat=49.78694&lon=6.17472&appid=de6eeb5e838ae1aee6c66e7e9de1f551,4.6
329,Hoyo de Manzanares,20,ES,100,40.62,-3.91,39.72199999999998,42.799999999999955,37.39999999999998,https://api.openweathermap.org/data/2.5/weather?lat=40.62265&lon=-3.90733&appid=de6eeb5e838ae1aee6c66e7e9de1f551,1.0
330,Malomice,90,PL,100,51.56,15.45,26.599999999999966,26.599999999999966,26.599999999999966,https://api.openweathermap.org/data/2.5/weather?lat=51.55597&lon=15.45004&appid=de6eeb5e838ae1aee6c66e7e9de1f551,1.5
331,Frattaminore,40,IT,69,40.96,14.27,37.39999999999998,37.39999999999998,37.39999999999998,https://api.openweathermap.org/data/2.5/weather?lat=40.9558&lon=14.27201&appid=de6eeb5e838ae1aee6c66e7e9de1f551,2.1
332,Zaplavnoye,90,RU,85,48.7,45.02,17.599999999999966,17.599999999999966,17.599999999999966,https://api.openweathermap.org/data/2.5/weather?lat=48.7048&lon=45.0229&appid=de6eeb5e838ae1aee6c66e7e9de1f551,6.0
333,Haslingfield,90,GB,100,52.14,-0.01,44.06000000000006,44.599999999999966,42.799999999999955,https://api.openweathermap.org/data/2.5/weather?lat=52.1356&lon=-0.01099&appid=de6eeb5e838ae1aee6c66e7e9de1f551,5.1
334,Sapa,0,PH,100,5.15,120.32,81.50180000000006,81.50180000000006,81.50180000000006,https://api.openweathermap.org/data/2.5/weather?lat=5.1544&lon=120.3241&appid=de6eeb5e838ae1aee6c66e7e9de1f551,1.47
335,Tosu,75,JP,81,33.37,130.52,48.613999999999976,51.799999999999955,46.39999999999998,https://api.openweathermap.org/data/2.5/weather?lat=33.36667&lon=130.51667&appid=de6eeb5e838ae1aee6c66e7e9de1f551,1.5
336,Belmont,20,AU,54,-33.02,151.67,80.59999999999997,80.59999999999997,80.59999999999997,https://api.openweathermap.org/data/2.5/weather?lat=-33.02081&lon=151.66849&appid=de6eeb5e838ae1aee6c66e7e9de1f551,6.7
337,Svir,68,BY,82,54.85,26.39,11.70679999999993,11.70679999999993,11.70679999999993,https://api.openweathermap.org/data/2.5/weather?lat=54.8517&lon=26.395&appid=de6eeb5e838ae1aee6c66e7e9de1f551,1.42
338,Cadereyta de Montes,40,MX,63,20.74,-99.78,62.599999999999966,62.599999999999966,62.599999999999966,https://api.openweathermap.org/data/2.5/weather?lat=20.74111&lon=-99.78472&appid=de6eeb5e838ae1aee6c66e7e9de1f551,4.6
339,Makkum,90,NL,86,53.05,5.4,34.53800000000001,37.39999999999998,33.799999999999955,https://api.openweathermap.org/data/2.5/weather?lat=53.05458&lon=5.40231&appid=de6eeb5e838ae1aee6c66e7e9de1f551,9.3
340,Gachancipa,75,CO,93,4.99,-73.87,53.599999999999966,53.599999999999966,53.599999999999966,https://api.openweathermap.org/data/2.5/weather?lat=4.99111&lon=-73.87154&appid=de6eeb5e838ae1aee6c66e7e9de1f551,2.1
341,Sulzemoos,0,DE,85,48.29,11.26,17.581999999999994,22.999999999999943,10.399999999999977,https://api.openweathermap.org/data/2.5/weather?lat=48.29107&lon=11.26356&appid=de6eeb5e838ae1aee6c66e7e9de1f551,2.1
342,Obergurig,0,DE,92,51.13,14.4,24.799999999999955,24.799999999999955,24.799999999999955,https://api.openweathermap.org/data/2.5/weather?lat=51.13294&lon=14.40488&appid=de6eeb5e838ae1aee6c66e7e9de1f551,3.1
343,Seres,8,PH,95,8.48,123.26,83.34679999999997,83.34679999999997,83.34679999999997,https://api.openweathermap.org/data/2.5/weather?lat=8.4803&lon=123.2629&appid=de6eeb5e838ae1aee6c66e7e9de1f551,1.77
344,Santa Clara,20,PH,62,6.68,122.06,87.80000000000001,87.80000000000001,87.80000000000001,https://api.openweathermap.org/data/2.5/weather?lat=6.6782&lon=122.06&appid=de6eeb5e838ae1aee6c66e7e9de1f551,3.1
345,Hurley,1,US,80,41.92,-74.06,36.103999999999985,40.99999999999994,31.999999999999943,https://api.openweathermap.org/data/2.5/weather?lat=41.92454&lon=-74.06125&appid=de6eeb5e838ae1aee6c66e7e9de1f551,1.92
346,Doganyol,75,TR,65,38.42,39.06,44.599999999999966,44.599999999999966,44.599999999999966,https://api.openweathermap.org/data/2.5/weather?lat=38.4246&lon=39.05728&appid=de6eeb5e838ae1aee6c66e7e9de1f551,2.1
347,Sarikamis,40,TR,68,40.33,42.59,30.199999999999932,30.199999999999932,30.199999999999932,https://api.openweathermap.org/data/2.5/weather?lat=40.32769&lon=42.58705&appid=de6eeb5e838ae1aee6c66e7e9de1f551,3.1
348,Garrel,92,DE,55,52.95,8.02,34.412000000000035,35.599999999999966,31.999999999999943,https://api.openweathermap.org/data/2.5/weather?lat=52.95&lon=8.01667&appid=de6eeb5e838ae1aee6c66e7e9de1f551,5.1
349,Talisay,40,PH,66,14.09,121.02,85.99999999999994,85.99999999999994,85.99999999999994,https://api.openweathermap.org/data/2.5/weather?lat=14.0925&lon=121.02194&appid=de6eeb5e838ae1aee6c66e7e9de1f551,1.0
350,Las Vegas,32,VE,56,9.54,-68.63,79.5668,79.5668,79.5668,https://api.openweathermap.org/data/2.5/weather?lat=9.53727&lon=-68.6296&appid=de6eeb5e838ae1aee6c66e7e9de1f551,3.97
351,Bykivka,44,UA,87,50.29,27.98,16.116800000000012,16.116800000000012,16.116800000000012,https://api.openweathermap.org/data/2.5/weather?lat=50.29285&lon=27.98314&appid=de6eeb5e838ae1aee6c66e7e9de1f551,2.77
352,Ama,75,US,94,29.95,-90.3,69.27800000000008,71.59999999999997,66.19999999999999,https://api.openweathermap.org/data/2.5/weather?lat=29.95215&lon=-90.29647&appid=de6eeb5e838ae1aee6c66e7e9de1f551,3.6
353,Geltendorf,0,DE,79,48.12,11.03,17.329999999999984,22.999999999999943,10.399999999999977,https://api.openweathermap.org/data/2.5/weather?lat=48.11737&lon=11.03216&appid=de6eeb5e838ae1aee6c66e7e9de1f551,3.1
354,Bottesford,64,GB,100,53.55,-0.65,43.24999999999994,44.599999999999966,42.799999999999955,https://api.openweathermap.org/data/2.5/weather?lat=53.55&lon=-0.65&appid=de6eeb5e838ae1aee6c66e7e9de1f551,5.7
355,Cece,68,HU,97,46.77,18.63,30.336799999999982,30.336799999999982,30.336799999999982,https://api.openweathermap.org/data/2.5/weather?lat=46.77056&lon=18.62826&appid=de6eeb5e838ae1aee6c66e7e9de1f551,3.67
356,Winfield,20,US,100,33.93,-87.82,62.67199999999997,64.39999999999992,60.80000000000001,https://api.openweathermap.org/data/2.5/weather?lat=33.92899&lon=-87.81725&appid=de6eeb5e838ae1aee6c66e7e9de1f551,3.37
357,Nuevo Arraijan,20,PA,78,8.92,-79.72,77.95400000000001,78.80000000000001,76.99999999999994,https://api.openweathermap.org/data/2.5/weather?lat=8.92453&lon=-79.72004&appid=de6eeb5e838ae1aee6c66e7e9de1f551,3.6
358,Maidan Shahr,75,AF,93,34.4,68.87,35.599999999999966,35.599999999999966,35.599999999999966,https://api.openweathermap.org/data/2.5/weather?lat=34.39561&lon=68.86618&appid=de6eeb5e838ae1aee6c66e7e9de1f551,1.5
359,Taos,90,US,74,36.41,-105.57,36.589999999999975,39.19999999999993,33.799999999999955,https://api.openweathermap.org/data/2.5/weather?lat=36.40725&lon=-105.57307&appid=de6eeb5e838ae1aee6c66e7e9de1f551,4.1
360,San Cassiano,90,IT,93,40.06,18.33,41.89999999999998,42.799999999999955,40.99999999999994,https://api.openweathermap.org/data/2.5/weather?lat=40.05631&lon=18.33392&appid=de6eeb5e838ae1aee6c66e7e9de1f551,4.6
361,Hangu,0,CN,73,39.25,117.79,31.999999999999943,31.999999999999943,31.999999999999943,https://api.openweathermap.org/data/2.5/weather?lat=39.24889&lon=117.78917&appid=de6eeb5e838ae1aee6c66e7e9de1f551,3.0
362,Sint-Laureins,75,BE,86,51.27,3.45,38.62399999999997,39.19999999999993,37.39999999999998,https://api.openweathermap.org/data/2.5/weather?lat=51.27333&lon=3.44722&appid=de6eeb5e838ae1aee6c66e7e9de1f551,7.2
363,Manyana,8,BW,91,-23.4,21.72,64.71680000000009,64.71680000000009,64.71680000000009,https://api.openweathermap.org/data/2.5/weather?lat=-23.4&lon=21.71667&appid=de6eeb5e838ae1aee6c66e7e9de1f551,3.87
364,Karbi,76,AM,74,40.33,44.38,29.749999999999943,33.799999999999955,26.599999999999966,https://api.openweathermap.org/data/2.5/weather?lat=40.33069&lon=44.37793&appid=de6eeb5e838ae1aee6c66e7e9de1f551,0.5
365,Nieporet,75,PL,86,52.43,21.03,26.599999999999966,26.599999999999966,26.599999999999966,https://api.openweathermap.org/data/2.5/weather?lat=52.43152&lon=21.03212&appid=de6eeb5e838ae1aee6c66e7e9de1f551,2.6
366,Makali,12,SL,68,8.63,-11.66,79.34180000000009,79.34180000000009,79.34180000000009,https://api.openweathermap.org/data/2.5/weather?lat=8.62964&lon=-11.66168&appid=de6eeb5e838ae1aee6c66e7e9de1f551,3.47
367,Lake Secession,75,US,82,34.28,-82.59,58.783999999999935,60.80000000000001,57.19999999999999,https://api.openweathermap.org/data/2.5/weather?lat=34.28455&lon=-82.59457&appid=de6eeb5e838ae1aee6c66e7e9de1f551,2.1
368,Anayazi,75,TR,100,36.36,36.21,46.39999999999998,46.39999999999998,46.39999999999998,https://api.openweathermap.org/data/2.5/weather?lat=36.36139&lon=36.21361&appid=de6eeb5e838ae1aee6c66e7e9de1f551,1.87
369,Saquena,88,PE,93,-5.06,-73.85,74.5718,74.5718,74.5718,https://api.openweathermap.org/data/2.5/weather?lat=-5.06083&lon=-73.85028&appid=de6eeb5e838ae1aee6c66e7e9de1f551,1.62
370,Tia Juana,56,VE,69,10.32,-71.27,84.78680000000003,84.78680000000003,84.78680000000003,https://api.openweathermap.org/data/2.5/weather?lat=10.32025&lon=-71.2721&appid=de6eeb5e838ae1aee6c66e7e9de1f551,7.12
371,Kirgili,90,UZ,93,40.44,71.77,40.24400000000003,40.99999999999994,39.19999999999993,https://api.openweathermap.org/data/2.5/weather?lat=40.43553&lon=71.76721&appid=de6eeb5e838ae1aee6c66e7e9de1f551,3.1
372,St Ives,90,GB,87,50.21,-5.49,48.19999999999993,48.19999999999993,48.19999999999993,https://api.openweathermap.org/data/2.5/weather?lat=50.20861&lon=-5.4875&appid=de6eeb5e838ae1aee6c66e7e9de1f551,6.7
373,Coscomatepec de Bravo,32,MX,96,19.14,-97.05,45.636799999999994,45.636799999999994,45.636799999999994,https://api.openweathermap.org/data/2.5/weather?lat=19.13972&lon=-97.05306&appid=de6eeb5e838ae1aee6c66e7e9de1f551,0.17
374,Yingcheng,92,CN,75,30.94,113.55,46.39999999999998,46.39999999999998,46.39999999999998,https://api.openweathermap.org/data/2.5/weather?lat=30.94454&lon=113.55284&appid=de6eeb5e838ae1aee6c66e7e9de1f551,4.0
375,Marseille,90,FR,60,43.3,5.4,40.51400000000001,42.799999999999955,39.19999999999993,https://api.openweathermap.org/data/2.5/weather?lat=43.30213&lon=5.40141&appid=de6eeb5e838ae1aee6c66e7e9de1f551,1.52
376,Agidel,68,RU,76,55.91,53.94,5.541800000000023,5.541800000000023,5.541800000000023,https://api.openweathermap.org/data/2.5/weather?lat=55.9077&lon=53.9355&appid=de6eeb5e838ae1aee6c66e7e9de1f551,2.92
377,Torremocha de Jarama,20,ES,100,40.84,-3.5,39.75799999999998,42.799999999999955,37.39999999999998,https://api.openweathermap.org/data/2.5/weather?lat=40.84148&lon=-3.49666&appid=de6eeb5e838ae1aee6c66e7e9de1f551,1.0
378,Valley Center,75,US,72,33.22,-117.03,60.99799999999999,62.599999999999966,58.99999999999994,https://api.openweathermap.org/data/2.5/weather?lat=33.21837&lon=-117.0342&appid=de6eeb5e838ae1aee6c66e7e9de1f551,2.1
379,Serravalle Pistoiese,0,IT,86,43.91,10.83,26.347999999999956,33.799999999999955,15.799999999999955,https://api.openweathermap.org/data/2.5/weather?lat=43.90605&lon=10.83271&appid=de6eeb5e838ae1aee6c66e7e9de1f551,0.5
380,Silat az Zahr,0,PS,76,32.32,35.18,53.599999999999966,53.599999999999966,53.599999999999966,https://api.openweathermap.org/data/2.5/weather?lat=32.31934&lon=35.18418&appid=de6eeb5e838ae1aee6c66e7e9de1f551,1.0
381,Pangkajene,75,ID,94,-4.84,119.55,76.99999999999994,76.99999999999994,76.99999999999994,https://api.openweathermap.org/data/2.5/weather?lat=-4.8372&lon=119.5472&appid=de6eeb5e838ae1aee6c66e7e9de1f551,1.5
382,Kashiwa,75,JP,32,35.86,139.98,52.37600000000003,55.39999999999992,49.99999999999994,https://api.openweathermap.org/data/2.5/weather?lat=35.86224&lon=139.97732&appid=de6eeb5e838ae1aee6c66e7e9de1f551,2.1
383,Ash,20,GB,93,52.95,-2.65,41.59400000000005,42.799999999999955,40.99999999999994,https://api.openweathermap.org/data/2.5/weather?lat=52.95&lon=-2.65&appid=de6eeb5e838ae1aee6c66e7e9de1f551,2.6
384,Staraya Kupavna,20,RU,84,55.81,38.18,11.31800000000004,12.199999999999932,8.599999999999966,https://api.openweathermap.org/data/2.5/weather?lat=55.80799&lon=38.1805&appid=de6eeb5e838ae1aee6c66e7e9de1f551,2.0
385,Elizabethtown,1,US,93,34.63,-78.61,57.19999999999999,57.19999999999999,57.19999999999999,https://api.openweathermap.org/data/2.5/weather?lat=34.62934&lon=-78.60529&appid=de6eeb5e838ae1aee6c66e7e9de1f551,3.57
386,Filabusi,80,ZW,98,-20.53,29.29,63.321799999999996,63.321799999999996,63.321799999999996,https://api.openweathermap.org/data/2.5/weather?lat=-20.53333&lon=29.28502&appid=de6eeb5e838ae1aee6c66e7e9de1f551,1.67
387,Zlate Moravce,0,SK,86,48.39,18.4,24.74599999999998,26.599999999999966,22.999999999999943,https://api.openweathermap.org/data/2.5/weather?lat=48.38553&lon=18.40063&appid=de6eeb5e838ae1aee6c66e7e9de1f551,2.1
388,Saint-Hippolyte-du-Fort,90,FR,93,43.96,3.86,41.88199999999995,42.799999999999955,40.99999999999994,https://api.openweathermap.org/data/2.5/weather?lat=43.96362&lon=3.85572&appid=de6eeb5e838ae1aee6c66e7e9de1f551,1.5
389,Akcadag,75,TR,75,38.34,37.74,40.99999999999994,40.99999999999994,40.99999999999994,https://api.openweathermap.org/data/2.5/weather?lat=38.33675&lon=37.74142&appid=de6eeb5e838ae1aee6c66e7e9de1f551,1.0
390,Artena,0,IT,69,41.74,12.91,36.283999999999935,37.39999999999998,33.799999999999955,https://api.openweathermap.org/data/2.5/weather?lat=41.74126&lon=12.90667&appid=de6eeb5e838ae1aee6c66e7e9de1f551,3.1
391,Galena,1,US,82,37.08,-94.64,57.66800000000006,60.80000000000001,55.39999999999992,https://api.openweathermap.org/data/2.5/weather?lat=37.0759&lon=-94.63967&appid=de6eeb5e838ae1aee6c66e7e9de1f551,8.32
392,Fresnes-sur-Escaut,90,FR,100,50.43,3.58,36.78800000000001,37.39999999999998,35.599999999999966,https://api.openweathermap.org/data/2.5/weather?lat=50.43382&lon=3.57752&appid=de6eeb5e838ae1aee6c66e7e9de1f551,6.7
393,Belton,90,US,100,34.52,-82.49,58.99999999999994,60.80000000000001,57.19999999999999,https://api.openweathermap.org/data/2.5/weather?lat=34.52289&lon=-82.49429&appid=de6eeb5e838ae1aee6c66e7e9de1f551,2.1
394,Velke Svatonovice,0,CZ,86,50.53,16.03,26.599999999999966,26.599999999999966,26.599999999999966,https://api.openweathermap.org/data/2.5/weather?lat=50.53164&lon=16.02853&appid=de6eeb5e838ae1aee6c66e7e9de1f551,1.32
395,Sigtuna,76,SE,100,59.62,17.72,24.170000000000016,24.799999999999955,22.999999999999943,https://api.openweathermap.org/data/2.5/weather?lat=59.61731&lon=17.72361&appid=de6eeb5e838ae1aee6c66e7e9de1f551,2.1
396,San Gabriel Casa Blanca,20,MX,100,18.15,-97.14,50.04679999999996,50.04679999999996,50.04679999999996,https://api.openweathermap.org/data/2.5/weather?lat=18.14976&lon=-97.13729&appid=de6eeb5e838ae1aee6c66e7e9de1f551,0.87
397,Tawau,75,MY,79,4.14,117.91,85.99999999999994,85.99999999999994,85.99999999999994,https://api.openweathermap.org/data/2.5/weather?lat=4.14383&lon=117.91087&appid=de6eeb5e838ae1aee6c66e7e9de1f551,2.6
398,Trexlertown,90,US,70,40.55,-75.61,45.122000000000014,46.39999999999998,42.799999999999955,https://api.openweathermap.org/data/2.5/weather?lat=40.54815&lon=-75.60574&appid=de6eeb5e838ae1aee6c66e7e9de1f551,1.5
399,Sieniawa Zarska,56,PL,92,51.64,15.06,26.82679999999999,26.82679999999999,26.82679999999999,https://api.openweathermap.org/data/2.5/weather?lat=51.64007&lon=15.06045&appid=de6eeb5e838ae1aee6c66e7e9de1f551,2.77
400,Sorihuela del Guadalimar,80,ES,93,38.24,-3.05,35.87179999999995,35.87179999999995,35.87179999999995,https://api.openweathermap.org/data/2.5/weather?lat=38.24062&lon=-3.0536&appid=de6eeb5e838ae1aee6c66e7e9de1f551,1.17
401,Aileu,56,TL,80,-8.73,125.57,78.12680000000006,78.12680000000006,78.12680000000006,https://api.openweathermap.org/data/2.5/weather?lat=-8.72806&lon=125.56639&appid=de6eeb5e838ae1aee6c66e7e9de1f551,0.72
402,Phu Khuong,40,VN,78,11.11,106.18,80.59999999999997,80.59999999999997,80.59999999999997,https://api.openweathermap.org/data/2.5/weather?lat=11.11051&lon=106.17924&appid=de6eeb5e838ae1aee6c66e7e9de1f551,1.5
403,Konigsbrunn,75,DE,92,48.28,10.89,17.599999999999966,22.999999999999943,10.399999999999977,https://api.openweathermap.org/data/2.5/weather?lat=48.27506&lon=10.89178&appid=de6eeb5e838ae1aee6c66e7e9de1f551,2.6
404,La Concepcion,0,PA,63,8.51,-82.62,80.01680000000005,80.01680000000005,80.01680000000005,https://api.openweathermap.org/data/2.5/weather?lat=8.51212&lon=-82.61858&appid=de6eeb5e838ae1aee6c66e7e9de1f551,3.97
405,Straznice,8,CZ,86,48.9,17.32,28.418000000000063,30.199999999999932,26.599999999999966,https://api.openweathermap.org/data/2.5/weather?lat=48.90102&lon=17.3168&appid=de6eeb5e838ae1aee6c66e7e9de1f551,2.1
406,Gurh,0,IN,74,24.5,81.5,57.516800000000046,57.516800000000046,57.516800000000046,https://api.openweathermap.org/data/2.5/weather?lat=24.50265&lon=81.50037&appid=de6eeb5e838ae1aee6c66e7e9de1f551,4.22
407,Gibgos,68,PH,94,13.86,123.77,80.87179999999995,80.87179999999995,80.87179999999995,https://api.openweathermap.org/data/2.5/weather?lat=13.859&lon=123.7675&appid=de6eeb5e838ae1aee6c66e7e9de1f551,2.57
408,Enochville,44,US,87,35.53,-80.67,54.75200000000001,57.19999999999999,51.799999999999955,https://api.openweathermap.org/data/2.5/weather?lat=35.52986&lon=-80.66812&appid=de6eeb5e838ae1aee6c66e7e9de1f551,2.1
409,Simojovel de Allende,92,MX,94,17.24,-92.7,67.37179999999995,67.37179999999995,67.37179999999995,https://api.openweathermap.org/data/2.5/weather?lat=17.24105&lon=-92.70231&appid=de6eeb5e838ae1aee6c66e7e9de1f551,1.17
410,Ventallo,20,ES,100,42.15,3.03,42.079999999999984,44.599999999999966,39.19999999999993,https://api.openweathermap.org/data/2.5/weather?lat=42.14921&lon=3.02635&appid=de6eeb5e838ae1aee6c66e7e9de1f551,1.27
411,Jonzieux,90,FR,93,45.32,4.36,39.36200000000002,40.99999999999994,37.39999999999998,https://api.openweathermap.org/data/2.5/weather?lat=45.31582&lon=4.36041&appid=de6eeb5e838ae1aee6c66e7e9de1f551,5.7
412,Wendover,90,GB,100,51.76,-0.74,46.18399999999997,48.19999999999993,44.599999999999966,https://api.openweathermap.org/data/2.5/weather?lat=51.76194&lon=-0.73986&appid=de6eeb5e838ae1aee6c66e7e9de1f551,4.6
413,Rouse Hill,0,AU,35,-33.68,150.92,84.03799999999995,87.80000000000001,80.59999999999997,https://api.openweathermap.org/data/2.5/weather?lat=-33.68207&lon=150.9154&appid=de6eeb5e838ae1aee6c66e7e9de1f551,3.6
414,Sherman,90,US,100,39.89,-89.6,48.95599999999996,51.799999999999955,46.39999999999998,https://api.openweathermap.org/data/2.5/weather?lat=39.89366&lon=-89.60482&appid=de6eeb5e838ae1aee6c66e7e9de1f551,2.6
415,Marange-Silvange,0,FR,69,49.21,6.1,33.74599999999998,35.599999999999966,31.999999999999943,https://api.openweathermap.org/data/2.5/weather?lat=49.20748&lon=6.10228&appid=de6eeb5e838ae1aee6c66e7e9de1f551,5.1
416,Villafames,0,ES,83,40.12,-0.05,40.32679999999999,40.32679999999999,40.32679999999999,https://api.openweathermap.org/data/2.5/weather?lat=40.11667&lon=-0.05&appid=de6eeb5e838ae1aee6c66e7e9de1f551,0.97
417,Rynkova Ye. V.,80,RU,76,62.15,73.6,-3.098199999999963,-3.098199999999963,-3.098199999999963,https://api.openweathermap.org/data/2.5/weather?lat=62.1538&lon=73.60102&appid=de6eeb5e838ae1aee6c66e7e9de1f551,1.72
418,Issa,64,RU,81,53.87,44.86,8.286799999999971,8.286799999999971,8.286799999999971,https://api.openweathermap.org/data/2.5/weather?lat=53.87049&lon=44.85781&appid=de6eeb5e838ae1aee6c66e7e9de1f551,1.97
419,Harwich,1,US,93,41.69,-70.08,38.696000000000026,40.99999999999994,37.39999999999998,https://api.openweathermap.org/data/2.5/weather?lat=41.68622&lon=-70.07585&appid=de6eeb5e838ae1aee6c66e7e9de1f551,5.7
420,Eppenrod,0,DE,74,50.42,7.93,30.829999999999984,31.999999999999943,30.199999999999932,https://api.openweathermap.org/data/2.5/weather?lat=50.41667&lon=7.93333&appid=de6eeb5e838ae1aee6c66e7e9de1f551,3.1
421,Eraclea,0,IT,100,45.58,12.67,29.73199999999997,31.999999999999943,28.399999999999977,https://api.openweathermap.org/data/2.5/weather?lat=45.57766&lon=12.6732&appid=de6eeb5e838ae1aee6c66e7e9de1f551,2.1
422,La Fouillouse,90,FR,93,45.5,4.31,39.27199999999999,40.99999999999994,37.39999999999998,https://api.openweathermap.org/data/2.5/weather?lat=45.502&lon=4.31213&appid=de6eeb5e838ae1aee6c66e7e9de1f551,5.7
423,Aubel,90,BE,90,50.7,5.86,35.023999999999944,37.39999999999998,33.799999999999955,https://api.openweathermap.org/data/2.5/weather?lat=50.70189&lon=5.85812&appid=de6eeb5e838ae1aee6c66e7e9de1f551,5.7
424,Coxquihui,36,MX,95,20.21,-97.59,63.186800000000005,63.186800000000005,63.186800000000005,https://api.openweathermap.org/data/2.5/weather?lat=20.2061&lon=-97.59402&appid=de6eeb5e838ae1aee6c66e7e9de1f551,1.22
425,Shahrisabz,90,UZ,100,39.06,66.83,31.999999999999943,31.999999999999943,31.999999999999943,https://api.openweathermap.org/data/2.5/weather?lat=39.05778&lon=66.83417&appid=de6eeb5e838ae1aee6c66e7e9de1f551,4.1
426,Kotkapura,8,IN,85,30.58,74.83,53.106799999999964,53.106799999999964,53.106799999999964,https://api.openweathermap.org/data/2.5/weather?lat=30.5819&lon=74.83298&appid=de6eeb5e838ae1aee6c66e7e9de1f551,1.42
427,Arzano,40,IT,69,40.91,14.27,37.39999999999998,37.39999999999998,37.39999999999998,https://api.openweathermap.org/data/2.5/weather?lat=40.90959&lon=14.26519&appid=de6eeb5e838ae1aee6c66e7e9de1f551,2.1
428,Evesham,88,GB,100,52.09,-1.95,42.26000000000005,44.599999999999966,40.99999999999994,https://api.openweathermap.org/data/2.5/weather?lat=52.09237&lon=-1.94887&appid=de6eeb5e838ae1aee6c66e7e9de1f551,2.6
429,Melfi,75,IT,100,41.0,15.62,26.599999999999966,26.599999999999966,26.599999999999966,https://api.openweathermap.org/data/2.5/weather?lat=41.00313&lon=15.61868&appid=de6eeb5e838ae1aee6c66e7e9de1f551,4.1
430,Chevy Chase Village,1,US,87,38.96,-77.07,46.50799999999998,51.799999999999955,42.799999999999955,https://api.openweathermap.org/data/2.5/weather?lat=38.964&lon=-77.06776&appid=de6eeb5e838ae1aee6c66e7e9de1f551,3.77
431,Altusried,0,DE,92,47.8,10.21,19.09400000000005,26.599999999999966,10.399999999999977,https://api.openweathermap.org/data/2.5/weather?lat=47.8041&lon=10.21429&appid=de6eeb5e838ae1aee6c66e7e9de1f551,1.0
432,Jianchang,0,CN,64,27.56,116.64,71.60179999999997,71.60179999999997,71.60179999999997,https://api.openweathermap.org/data/2.5/weather?lat=27.55831&lon=116.63978&appid=de6eeb5e838ae1aee6c66e7e9de1f551,1.47
433,Patti,0,IN,80,25.92,82.2,57.87680000000006,57.87680000000006,57.87680000000006,https://api.openweathermap.org/data/2.5/weather?lat=25.9215&lon=82.20048&appid=de6eeb5e838ae1aee6c66e7e9de1f551,4.67
434,Sarahart,20,AM,86,40.87,44.21,26.599999999999966,26.599999999999966,26.599999999999966,https://api.openweathermap.org/data/2.5/weather?lat=40.87043&lon=44.21407&appid=de6eeb5e838ae1aee6c66e7e9de1f551,1.5
435,Pedona,0,IT,100,43.91,10.31,23.612000000000023,33.799999999999955,15.799999999999955,https://api.openweathermap.org/data/2.5/weather?lat=43.90828&lon=10.30621&appid=de6eeb5e838ae1aee6c66e7e9de1f551,3.6
436,Phek,0,IN,73,25.67,94.5,53.55680000000001,53.55680000000001,53.55680000000001,https://api.openweathermap.org/data/2.5/weather?lat=25.66667&lon=94.5&appid=de6eeb5e838ae1aee6c66e7e9de1f551,0.27
437,Lubstorf,75,DE,92,53.73,11.41,24.799999999999955,24.799999999999955,24.799999999999955,https://api.openweathermap.org/data/2.5/weather?lat=53.72561&lon=11.41471&appid=de6eeb5e838ae1aee6c66e7e9de1f551,4.1
438,Estables,0,ES,66,41.01,-2.02,51.799999999999955,51.799999999999955,51.799999999999955,https://api.openweathermap.org/data/2.5/weather?lat=41.00767&lon=-2.02438&appid=de6eeb5e838ae1aee6c66e7e9de1f551,1.5
439,Lyndhurst,0,AU,35,-38.06,145.26,72.22999999999996,73.39999999999992,71.59999999999997,https://api.openweathermap.org/data/2.5/weather?lat=-38.05588&lon=145.25615&appid=de6eeb5e838ae1aee6c66e7e9de1f551,6.2
440,Mata de Pila,5,MX,94,19.21,-96.27,69.80000000000001,69.80000000000001,69.80000000000001,https://api.openweathermap.org/data/2.5/weather?lat=19.2075&lon=-96.27333&appid=de6eeb5e838ae1aee6c66e7e9de1f551,1.5
441,Mayskiy,90,RU,92,50.52,36.46,23.989999999999952,24.799999999999955,22.999999999999943,https://api.openweathermap.org/data/2.5/weather?lat=50.51988&lon=36.45878&appid=de6eeb5e838ae1aee6c66e7e9de1f551,3.0
442,Waalwijk,75,NL,95,51.69,5.1,35.38399999999996,37.39999999999998,33.799999999999955,https://api.openweathermap.org/data/2.5/weather?lat=51.69246&lon=5.09628&appid=de6eeb5e838ae1aee6c66e7e9de1f551,5.7
443,Veroli,0,IT,100,41.69,13.42,27.186800000000005,27.186800000000005,27.186800000000005,https://api.openweathermap.org/data/2.5/weather?lat=41.69433&lon=13.41664&appid=de6eeb5e838ae1aee6c66e7e9de1f551,2.32
444,Sorland,36,NO,100,67.67,12.7,38.07679999999999,38.07679999999999,38.07679999999999,https://api.openweathermap.org/data/2.5/weather?lat=67.66564&lon=12.69784&appid=de6eeb5e838ae1aee6c66e7e9de1f551,10.17
445,Valfarta,0,ES,93,41.56,-0.13,39.19999999999993,39.19999999999993,39.19999999999993,https://api.openweathermap.org/data/2.5/weather?lat=41.55726&lon=-0.13304&appid=de6eeb5e838ae1aee6c66e7e9de1f551,3.1
446,Mondariz,90,ES,100,42.23,-8.46,53.599999999999966,53.599999999999966,53.599999999999966,https://api.openweathermap.org/data/2.5/weather?lat=42.2311&lon=-8.45839&appid=de6eeb5e838ae1aee6c66e7e9de1f551,3.1
447,Periam,90,RO,100,46.05,20.87,33.799999999999955,33.799999999999955,33.799999999999955,https://api.openweathermap.org/data/2.5/weather?lat=46.05&lon=20.86667&appid=de6eeb5e838ae1aee6c66e7e9de1f551,2.1
448,Ban Nong King Fa,0,TH,69,16.69,98.51,75.19999999999999,75.19999999999999,75.19999999999999,https://api.openweathermap.org/data/2.5/weather?lat=16.68911&lon=98.50893&appid=de6eeb5e838ae1aee6c66e7e9de1f551,1.5
449,Walding,40,AT,100,48.35,14.16,21.199999999999932,21.199999999999932,21.199999999999932,https://api.openweathermap.org/data/2.5/weather?lat=48.35209&lon=14.1576&appid=de6eeb5e838ae1aee6c66e7e9de1f551,1.0
450,Parit,40,ID,88,-3.39,104.83,80.59999999999997,80.59999999999997,80.59999999999997,https://api.openweathermap.org/data/2.5/weather?lat=-3.392&lon=104.8306&appid=de6eeb5e838ae1aee6c66e7e9de1f551,5.1
451,Saint-Vincent-de-Paul,90,FR,93,44.95,-0.47,55.39999999999992,55.39999999999992,55.39999999999992,https://api.openweathermap.org/data/2.5/weather?lat=44.95429&lon=-0.46751&appid=de6eeb5e838ae1aee6c66e7e9de1f551,6.2
452,Rovasenda,0,IT,85,45.54,8.32,32.43199999999996,48.19999999999993,22.999999999999943,https://api.openweathermap.org/data/2.5/weather?lat=45.53866&lon=8.31592&appid=de6eeb5e838ae1aee6c66e7e9de1f551,3.1
453,Loningen,92,DE,55,52.74,7.76,35.599999999999966,35.599999999999966,35.599999999999966,https://api.openweathermap.org/data/2.5/weather?lat=52.73678&lon=7.75809&appid=de6eeb5e838ae1aee6c66e7e9de1f551,5.1
454,Quebracho,0,UY,50,-31.94,-57.9,68.9468,68.9468,68.9468,https://api.openweathermap.org/data/2.5/weather?lat=-31.93526&lon=-57.9014&appid=de6eeb5e838ae1aee6c66e7e9de1f551,4.77
455,Laem Sing,20,TH,83,12.48,102.07,78.80000000000001,78.80000000000001,78.80000000000001,https://api.openweathermap.org/data/2.5/weather?lat=12.48164&lon=102.07375&appid=de6eeb5e838ae1aee6c66e7e9de1f551,1.0
456,Segariu,0,IT,86,39.56,8.98,40.74799999999999,46.39999999999998,37.39999999999998,https://api.openweathermap.org/data/2.5/weather?lat=39.56403&lon=8.98163&appid=de6eeb5e838ae1aee6c66e7e9de1f551,3.6
457,Port dAlcudia,75,ES,93,39.84,3.13,49.99999999999994,49.99999999999994,49.99999999999994,https://api.openweathermap.org/data/2.5/weather?lat=39.84182&lon=3.13291&appid=de6eeb5e838ae1aee6c66e7e9de1f551,1.0
458,Villa Alemana,75,CL,93,-33.04,-71.37,62.14999999999992,69.80000000000001,57.19999999999999,https://api.openweathermap.org/data/2.5/weather?lat=-33.04222&lon=-71.37333&appid=de6eeb5e838ae1aee6c66e7e9de1f551,2.1
459,Korenevo,20,RU,84,55.67,38.01,11.31800000000004,12.199999999999932,8.599999999999966,https://api.openweathermap.org/data/2.5/weather?lat=55.67194&lon=38.00778&appid=de6eeb5e838ae1aee6c66e7e9de1f551,2.0
460,Hillsboro Beach,20,US,69,26.29,-80.08,73.84999999999997,75.19999999999999,71.59999999999997,https://api.openweathermap.org/data/2.5/weather?lat=26.29397&lon=-80.07893&appid=de6eeb5e838ae1aee6c66e7e9de1f551,4.1
461,Vert-le-Grand,90,FR,100,48.57,2.36,40.99999999999994,40.99999999999994,40.99999999999994,https://api.openweathermap.org/data/2.5/weather?lat=48.57172&lon=2.35777&appid=de6eeb5e838ae1aee6c66e7e9de1f551,3.6
462,Kota Belud,75,MY,83,6.35,116.43,80.59999999999997,80.59999999999997,80.59999999999997,https://api.openweathermap.org/data/2.5/weather?lat=6.351&lon=116.4305&appid=de6eeb5e838ae1aee6c66e7e9de1f551,1.0
463,Toledo,40,CO,83,7.31,-72.48,75.19999999999999,75.19999999999999,75.19999999999999,https://api.openweathermap.org/data/2.5/weather?lat=7.30984&lon=-72.48295&appid=de6eeb5e838ae1aee6c66e7e9de1f551,1.0
464,Rizon,68,GR,96,40.73,22.14,30.336799999999982,30.336799999999982,30.336799999999982,https://api.openweathermap.org/data/2.5/weather?lat=40.73331&lon=22.13674&appid=de6eeb5e838ae1aee6c66e7e9de1f551,0.97
465,Morris,20,US,100,33.75,-86.81,62.599999999999966,62.599999999999966,62.599999999999966,https://api.openweathermap.org/data/2.5/weather?lat=33.74816&lon=-86.8086&appid=de6eeb5e838ae1aee6c66e7e9de1f551,2.57
466,Pampas,80,PE,90,-12.27,-74.95,42.57679999999999,42.57679999999999,42.57679999999999,https://api.openweathermap.org/data/2.5/weather?lat=-12.26667&lon=-74.95&appid=de6eeb5e838ae1aee6c66e7e9de1f551,0.47
467,Fuentearmegil,92,ES,100,41.71,-3.18,40.86680000000001,40.86680000000001,40.86680000000001,https://api.openweathermap.org/data/2.5/weather?lat=41.71496&lon=-3.18362&appid=de6eeb5e838ae1aee6c66e7e9de1f551,2.52
468,Maisach,75,DE,92,48.22,11.27,17.599999999999966,22.999999999999943,10.399999999999977,https://api.openweathermap.org/data/2.5/weather?lat=48.21667&lon=11.26667&appid=de6eeb5e838ae1aee6c66e7e9de1f551,2.6
469,Lower South Hill,40,AI,69,18.18,-63.09,76.99999999999994,76.99999999999994,76.99999999999994,https://api.openweathermap.org/data/2.5/weather?lat=18.17648&lon=-63.09375&appid=de6eeb5e838ae1aee6c66e7e9de1f551,6.2
470,Xóm Yân Lạc Hâu,8,VN,98,18.78,105.33,68.76680000000005,68.76680000000005,68.76680000000005,https://api.openweathermap.org/data/2.5/weather?lat=18.77877&lon=105.33356&appid=de6eeb5e838ae1aee6c66e7e9de1f551,1.17
471,Kamogata,75,JP,66,34.53,133.6,48.81200000000001,49.99999999999994,48.19999999999993,https://api.openweathermap.org/data/2.5/weather?lat=34.53484&lon=133.60302&appid=de6eeb5e838ae1aee6c66e7e9de1f551,1.0
472,Alaminos,0,PH,84,16.16,119.98,84.15679999999992,84.15679999999992,84.15679999999992,https://api.openweathermap.org/data/2.5/weather?lat=16.15611&lon=119.98111&appid=de6eeb5e838ae1aee6c66e7e9de1f551,1.97
473,Banos,32,PH,79,12.65,120.91,80.87179999999995,80.87179999999995,80.87179999999995,https://api.openweathermap.org/data/2.5/weather?lat=12.64553&lon=120.90972&appid=de6eeb5e838ae1aee6c66e7e9de1f551,2.82
474,Jieshi,32,CN,93,22.81,115.83,66.78680000000003,66.78680000000003,66.78680000000003,https://api.openweathermap.org/data/2.5/weather?lat=22.81027&lon=115.83058&appid=de6eeb5e838ae1aee6c66e7e9de1f551,2.32
475,Medina,20,US,80,43.22,-78.39,35.581999999999994,39.19999999999993,31.999999999999943,https://api.openweathermap.org/data/2.5/weather?lat=43.22006&lon=-78.38697&appid=de6eeb5e838ae1aee6c66e7e9de1f551,4.6
476,Hoboken,90,US,61,40.74,-74.03,45.410000000000025,49.99999999999994,39.19999999999993,https://api.openweathermap.org/data/2.5/weather?lat=40.74399&lon=-74.03236&appid=de6eeb5e838ae1aee6c66e7e9de1f551,2.72
477,Hatta,0,IN,66,24.13,79.6,57.02179999999993,57.02179999999993,57.02179999999993,https://api.openweathermap.org/data/2.5/weather?lat=24.13406&lon=79.60119&appid=de6eeb5e838ae1aee6c66e7e9de1f551,1.52
478,Kapaya,0,PH,64,6.56,124.57,87.80180000000001,87.80180000000001,87.80180000000001,https://api.openweathermap.org/data/2.5/weather?lat=6.56461&lon=124.56623&appid=de6eeb5e838ae1aee6c66e7e9de1f551,1.57
479,Lingdong,0,CN,79,46.57,131.15,15.801800000000014,15.801800000000014,15.801800000000014,https://api.openweathermap.org/data/2.5/weather?lat=46.56694&lon=131.14528&appid=de6eeb5e838ae1aee6c66e7e9de1f551,6.12
480,Dutch Harbor,75,US,80,53.89,-166.54,39.19999999999993,39.19999999999993,39.19999999999993,https://api.openweathermap.org/data/2.5/weather?lat=53.8898&lon=-166.5422&appid=de6eeb5e838ae1aee6c66e7e9de1f551,9.3
481,Kotlje,0,SI,92,46.52,14.99,16.249999999999943,21.199999999999932,12.199999999999932,https://api.openweathermap.org/data/2.5/weather?lat=46.52139&lon=14.98694&appid=de6eeb5e838ae1aee6c66e7e9de1f551,0.5
